[{"name":"Résidence La Bruyère","address":"211 avenue Galliéni","commune":"BONDY","lat":48.907676,"lon":2.491884,"lots":176,"label_year":2016},{"name":"Garges Nord","address":"6,8,9,10,11,12,14,16,18 rue Auguste Renoir","commune":"GARGES-LES-GONESSES","lat":48.978949,"lon":2.394703,"lots":150,"label_year":2018},{"name":"69 avenue du Président Wilson","address":"69 avenue du Président Wilson","commune":"LA PLAINE SAINT-DENIS","lat":48.904455,"lon":2.358159,"lots":52,"label_year":2017},{"name":"4-6 rue des Louvres","address":"4-6 rue des Louvres","commune":"GARGES-LES-GONESSES","lat":48.968178,"lon":2.397821,"lots":48,"label_year":2016},{"name":"Les Marais","address":"27-31 rue des Marais","commune":"BOBIGNY","lat":48.905835,"lon":2.438115,"lots":35,"label_year":2016},{"name":"Tour Boileau","address":"2 rue Christophe Colomb","commune":"MANTES-LA-JOLIE","lat":49.003059,"lon":1.689925,"lots":71,"label_year":2016},{"name":"Tour Obélisque","address":"2-4 place Oberürsel","commune":"EPINAY-SUR-SEINE","lat":48.956002,"lon":2.295497,"lots":163,"label_year":2016},{"name":"Résidence Pré de l'Enclos 2","address":"1 et 3 place de l'Ecole","commune":"VILLIERS-LE-BEL","lat":49.001121,"lon":2.397201,"lots":91,"label_year":2016},{"name":"Les Bords du Lac 1 et 2","address":"1 à 7 et 8 à 12 rue des Bords du Lac","commune":"COURCOURONNES","lat":48.618448,"lon":2.412298,"lots":98,"label_year":2016},{"name":"Le Parc de la Noue","address":"avenue du Parc de la Noue","commune":"VILLEPINTE","lat":48.9580019,"lon":2.5415152,"lots":757,"label_year":2017},{"name":"Quetigny 3","address":"18 rue Dumas et 62 rue de Paris","commune":"EPINAY-SUR-SEINE","lat":48.95449,"lon":2.309667,"lots":153,"label_year":2016},{"name":"Quetigny 1","address":"10-12 rue Dumas","commune":"EPINAY-SUR-SEINE","lat":48.9556,"lon":2.309857,"lots":162,"label_year":2016},{"name":"Résidence Maurice Ravel","address":"2 boulevard Maurice Ravel","commune":"SARCELLES","lat":48.973449,"lon":2.382517,"lots":60,"label_year":2016},{"name":"Les Chalands 1","address":"21 à 25 avenue Youri Gagarine et 2 allée Marco Polo","commune":"SEVRAN","lat":48.948265,"lon":2.521218,"lots":66,"label_year":2016},{"name":"Copropriété Sully Canal","address":"1 à 4 et 11 à 13 square du Trou Rouge","commune":"COURCOURONNES","lat":48.632865,"lon":2.41048,"lots":38,"label_year":2016},{"name":"Tour d'Estrées","address":"3 rue Jacques Cartier","commune":"MANTES-LA-JOLIE","lat":49.003611,"lon":1.690519,"lots":106,"label_year":2016},{"name":"Quetigny 2","address":"14-16 rue Dumas","commune":"EPINAY-SUR-SEINE","lat":48.955092,"lon":2.3089307,"lots":164,"label_year":2016}]
