insee,dept,lon,lat,name
01001,01,4.93060,46.15170,L'Abergement-Clémenciat
01002,01,5.42470,46.00710,L'Abergement-de-Varey
01004,01,5.37060,45.95750,Ambérieu-en-Bugey
01005,01,4.91190,45.99920,Ambérieux-en-Dombes
01006,01,5.59280,45.74830,Ambléon
01007,01,5.36270,46.00990,Ambronay
01008,01,5.33590,45.93470,Ambutrix
01009,01,5.66070,45.78410,Andert-et-Condon
01010,01,5.79480,45.90860,Anglefort
01011,01,5.66190,46.20450,Apremont
01012,01,5.51400,45.99720,Aranc
01013,01,5.49820,45.88850,Arandas
01014,01,5.68790,46.28380,Arbent
01015,01,5.64040,45.71890,Arboys en Bugey
01016,01,4.96130,46.48080,Arbigny
01017,01,5.48190,45.93220,Argis
01019,01,5.58370,45.85230,Armix
01021,01,4.81950,45.99040,Ars-sur-Formans
01022,01,5.69200,45.87010,Artemare
01023,01,4.88200,46.38590,Asnières-sur-Saône
01024,01,5.18230,46.28580,Attignat
01025,01,4.97040,46.32770,Bâgé-Dommartin
01026,01,4.93050,46.30810,Bâgé-le-Châtel
01027,01,5.10760,45.82680,Balan
01028,01,4.90450,46.11170,Baneins
01029,01,5.26340,46.42740,Beaupont
01030,01,4.75670,46.00120,Beauregard
01031,01,5.63710,46.24020,Bellignat
01032,01,5.14150,45.86220,Béligneux
01033,01,5.79440,46.12340,Valserhône
01034,01,5.69270,45.74300,Belley
01035,01,5.78160,46.25190,Belleydoux
01036,01,5.66260,45.92360,Valromey-sur-Séran
01037,01,5.48340,45.84200,Bénonces
01038,01,5.27890,46.31890,Bény
01040,01,5.04310,46.36990,Béréziat
01041,01,5.36480,45.93660,Bettant
01042,01,4.84400,46.21820,Bey
01043,01,4.99640,45.83590,Beynost
01044,01,5.76320,46.07780,Billiat
01045,01,5.04010,45.95090,Birieux
01046,01,4.93930,46.22400,Biziat
01047,01,5.25150,45.84420,Blyes
01049,01,5.02620,45.84830,La Boisse
01050,01,4.99750,46.37230,Boissey
01051,01,5.47010,46.19710,Bolozon
01052,01,4.99570,46.02020,Bouligneux
01053,01,5.24690,46.20270,Bourg-en-Bresse
01054,01,5.13930,45.88420,Bourg-Saint-Christophe
01056,01,5.46160,46.03560,Boyeux-Saint-Jérôme
01057,01,4.91660,46.40890,Boz
01058,01,5.61740,45.64060,Brégnier-Cordon
01060,01,5.61160,46.07910,Brénod
01061,01,5.69000,45.71630,Brens
01062,01,5.09840,45.87140,Bressolles
01063,01,5.54770,46.16890,Brion
01064,01,5.48320,45.76800,Briord
01065,01,5.14680,46.21160,Buellas
01066,01,5.54800,45.86290,La Burbanche
01067,01,5.49570,46.12580,Ceignes
01068,01,5.47550,46.07500,Cerdon
01069,01,5.26380,46.13360,Certines
01071,01,6.08200,46.31570,Cessy
01072,01,5.31910,46.18220,Ceyzériat
01073,01,5.71970,45.83680,Ceyzérieu
01074,01,5.17350,46.01490,Chalamont
01075,01,4.79990,46.03610,Chaleins
01076,01,5.54080,45.95110,Chaley
01077,01,5.45600,46.12370,Challes-la-Montagne
01078,01,5.97350,46.17650,Challex
01079,01,5.69210,45.93170,Champagne-en-Valromey
01080,01,5.58820,46.03710,Champdor-Corcelles
01081,01,5.82160,46.22640,Champfromier
01082,01,5.76740,46.00240,Chanay
01083,01,4.85170,46.09470,Chaneins
01084,01,5.03020,46.18680,Chanoz-Châtenay
01085,01,5.01740,46.06830,La Chapelle-du-Châtelard
01087,01,5.67730,46.18930,Charix
01088,01,5.22510,45.87560,Charnoz-sur-Ain
01089,01,5.30910,45.97230,Château-Gaillard
01090,01,5.20850,46.02760,Châtenay
01092,01,5.24600,45.97570,Châtillon-la-Palud
01093,01,4.95490,46.12640,Châtillon-sur-Chalaronne
01094,01,5.00690,46.44030,Chavannes-sur-Reyssouze
01095,01,5.43230,46.28240,Nivigne et Suran
01096,01,5.05340,46.19910,Chaveyriat
01098,01,5.66780,45.80070,Chazey-Bons
01099,01,5.26040,45.89370,Chazey-sur-Ain
01100,01,5.60220,45.82330,Cheignieu-la-Balme
01101,01,5.58150,46.10870,Chevillard
01102,01,4.95980,46.38220,Chevroux
01103,01,6.04740,46.28410,Chevry
01104,01,5.86930,46.22440,Chézery-Forens
01105,01,4.88950,45.92080,Civrieux
01106,01,5.45000,46.20150,Cize
01107,01,5.43170,45.90270,Cleyzieu
01108,01,5.33520,46.38890,Coligny
01109,01,5.90070,46.13970,Collonges
01110,01,5.62690,45.73380,Colomieu
01111,01,5.47870,45.88360,Conand
01112,01,5.55960,46.10560,Condamine
01113,01,5.08630,46.15410,Condeissiat
01114,01,5.83580,46.15360,Confort
01115,01,5.06000,46.27320,Confrançon
01116,01,5.61640,45.79710,Contrevoz
01117,01,5.60200,45.72460,Conzieu
01118,01,5.79020,45.96680,Corbonod
01121,01,5.50030,46.03690,Corlier
01123,01,4.83050,46.24590,Cormoranche-sur-Saône
01124,01,5.22090,46.43750,Cormoz
01125,01,5.47710,46.25140,Corveissiat
01127,01,5.35850,46.32430,Courmangoux
01128,01,5.11280,46.45640,Courtes
01129,01,5.19170,45.96670,Crans
01130,01,5.18220,46.32710,Bresse Vallons
01133,01,5.76500,45.78330,Cressin-Rochefort
01134,01,4.87600,46.28480,Crottet
01135,01,5.99290,46.29060,Crozet
01136,01,4.87600,46.22330,Cruzilles-lès-Mépillat
01138,01,5.77160,45.85530,Culoz-Béon
01139,01,5.16660,46.48830,Curciat-Dongalon
01140,01,5.10510,46.27420,Curtafond
01141,01,5.68020,45.82160,Cuzieu
01142,01,5.07480,45.85400,Dagneux
01143,01,6.11140,46.37540,Divonne-les-Bains
01145,01,5.21670,46.06720,Dompierre-sur-Veyle
01146,01,4.90040,46.14200,Dompierre-sur-Chalaronne
01147,01,5.29450,46.42110,Domsure
01148,01,5.64430,46.31840,Dortan
01149,01,5.37240,45.98470,Douvres
01150,01,5.36740,46.22020,Drom
01151,01,5.29470,46.06910,Druillat
01152,01,5.73460,46.22930,Échallon
01153,01,6.01800,46.31970,Échenevex
01155,01,5.50080,45.96300,Évosges
01156,01,5.12600,45.90860,Faramans
01157,01,4.76820,46.02350,Fareins
01158,01,5.90540,46.16570,Farges
01159,01,4.88660,46.33930,Feillens
01160,01,6.10610,46.25200,Ferney-Voltaire
01162,01,5.74660,45.81250,Flaxieu
01163,01,5.18510,46.37920,Foissiat
01165,01,4.81110,46.07070,Francheleins
01166,01,4.78190,45.99050,Frans
01167,01,4.82890,46.21240,Garnerans
01169,01,4.79260,46.12110,Genouilleux
01170,01,5.54970,46.18840,Béard-Géovreissiat
01171,01,5.61630,46.25180,Géovreisset
01173,01,6.04880,46.35150,Gex
01174,01,5.78910,46.22090,Giron
01175,01,4.95070,46.41570,Gorrevod
01177,01,5.43880,46.20890,Grand-Corent
01179,01,4.84750,46.26690,Grièges
01180,01,6.11390,46.33180,Grilly
01181,01,5.61790,46.22700,Groissiat
01183,01,4.78390,46.10600,Guéreins
01184,01,5.43110,46.15920,Hautecourt-Romanèche
01185,01,5.57750,45.93050,Plateau d'Hauteville
01187,01,5.68460,46.04360,Haut Valromey
01188,01,4.88840,46.18380,Illiat
01189,01,5.76780,46.05050,Injoux-Génissiat
01190,01,5.57230,45.78750,Innimond
01191,01,5.52340,46.03800,Izenave
01192,01,5.56090,46.21600,Izernore
01193,01,5.63870,45.65550,Izieu
01194,01,4.76260,45.97710,Jassans-Riottier
01195,01,5.31700,46.21760,Jasseron
01196,01,5.11170,46.36980,Jayat
01197,01,5.33330,46.14550,Journans
01198,01,5.09980,45.94600,Joyeux
01199,01,5.41220,46.05030,Jujurieux
01200,01,5.49450,46.09150,Labalme
01202,01,5.33960,45.88630,Lagnieu
01203,01,4.90060,46.24620,Laiz
01204,01,5.69550,46.13920,Le Poizat-Lalleyriat
01206,01,5.53790,46.05310,Lantenay
01207,01,4.98210,45.98490,Lapeyrouse
01208,01,5.77070,45.81080,Lavours
01209,01,5.87680,46.11140,Léaz
01210,01,5.92740,46.28560,Lélex
01211,01,5.19740,46.11650,Lent
01212,01,5.15730,46.40890,Lescheroux
01213,01,5.29270,45.92870,Leyment
01214,01,5.47670,46.16050,Leyssard
01215,01,5.76660,46.03020,Surjoux-Lhopital
01216,01,5.53980,45.74690,Lhuis
01219,01,5.52630,45.81180,Lompnas
01224,01,5.21630,45.79530,Loyettes
01225,01,4.78020,46.06280,Lurcy
01227,01,5.71970,45.77630,Magnieu
01228,01,5.53500,46.12040,Maillat
01229,01,5.14620,46.32990,Malafretaz
01230,01,5.10640,46.43180,Mantenay-Montlin
01231,01,4.90260,46.36510,Manziat
01232,01,5.24610,46.34520,Marboz
01233,01,5.55090,45.77620,Marchamp
01234,01,5.71800,45.80230,Marignieu
01235,01,5.07560,46.05420,Marlieux
01236,01,5.06080,46.34010,Marsonnas
01237,01,5.60990,46.20300,Martignat
01238,01,4.82790,45.91010,Massieux
01239,01,5.75660,45.75640,Massignieu-de-Rives
01240,01,5.52720,46.25050,Matafelon-Granges
01241,01,5.33470,46.24510,Meillonnas
01242,01,5.44250,46.06500,Mérignat
01243,01,4.76090,46.04800,Messimy-sur-Saône
01244,01,5.21160,45.90470,Meximieux
01245,01,5.37500,46.14220,Bohas-Meyriat-Rignat
01246,01,5.04810,46.24240,Mézériat
01247,01,6.01060,46.35930,Mijoux
01248,01,4.92740,45.89590,Mionnay
01249,01,4.94100,45.84440,Miribel
01250,01,4.81380,45.97450,Misérieux
01252,01,4.82030,46.14540,Mogneneins
01254,01,5.27760,46.17200,Montagnat
01255,01,5.45980,45.80200,Montagnieu
01257,01,5.79030,46.17100,Montanges
01258,01,4.80410,46.09780,Montceaux
01259,01,5.11230,46.21990,Montcet
01260,01,5.06990,45.92840,Le Montellier
01261,01,4.94800,45.96310,Monthieux
01262,01,5.01850,45.88680,Montluel
01263,01,4.75900,46.08430,Montmerle-sur-Saône
01264,01,5.12340,46.18200,Montracol
01265,01,5.59760,46.18100,Montréal-la-Cluse
01266,01,5.11220,46.32620,Montrevel-en-Bresse
01267,01,5.51550,46.18550,Nurieux-Volognat
01268,01,5.65850,45.64040,Murs-et-Gélignieux
01269,01,5.60790,46.14860,Nantua
01272,01,5.01030,46.15990,Neuville-les-Dames
01273,01,5.37020,46.09090,Neuville-sur-Ain
01274,01,5.63540,46.13670,Les Neyrolles
01275,01,4.93560,45.82040,Neyron
01276,01,5.06150,45.82410,Niévroz
01277,01,5.45670,46.00020,Nivollet-Montgriffon
01279,01,5.47160,45.96850,Oncieu
01280,01,5.54390,45.83570,Ordonnaz
01281,01,6.09530,46.27790,Ornex
01282,01,5.55430,46.06310,Outriaz
01283,01,5.65170,46.25990,Oyonnax
01284,01,4.91910,46.38630,Ozan
01285,01,4.82990,45.91970,Parcieux
01286,01,5.74950,45.73180,Parves et Nattages
01288,01,5.91410,46.19330,Péron
01289,01,5.21950,46.16930,Péronnas
01290,01,5.17910,45.87890,Pérouges
01291,01,4.97180,46.24620,Perrex
01293,01,5.50600,46.14860,Peyriat
01294,01,5.68290,45.67400,Peyrieu
01295,01,4.81920,46.12270,Peyzieux-sur-Saône
01296,01,5.27030,46.38600,Pirajoux
01297,01,5.09010,45.89060,Pizay
01298,01,5.71790,46.18890,Plagne
01299,01,5.08910,46.02360,Le Plantay
01301,01,5.13550,46.25040,Polliat
01302,01,5.74630,45.79530,Pollieu
01303,01,5.41290,46.09180,Poncin
01304,01,5.34910,46.05560,Pont-d'Ain
01305,01,4.92650,46.44150,Pont-de-Vaux
01306,01,4.88180,46.26470,Pont-de-Veyle
01307,01,5.58100,46.15350,Port
01308,01,5.94920,46.14570,Pougny
01309,01,5.42430,46.32630,Pouillat
01310,01,5.64230,45.68270,Prémeyzel
01311,01,5.56570,45.87850,Prémillieu
01313,01,6.07220,46.25940,Prévessin-Moëns
01314,01,5.28290,46.01900,Priay
01317,01,5.35690,46.18930,Ramasse
01318,01,4.86650,45.96740,Rancé
01319,01,4.93990,46.08080,Relevant
01320,01,4.87840,46.30700,Replonges
01321,01,5.33510,46.16370,Revonnas
01322,01,4.83140,45.93680,Reyrieux
01323,01,4.91450,46.42840,Reyssouze
01325,01,5.16750,45.95130,Rignieux-le-Franc
01328,01,5.02170,46.12160,Romans
01329,01,5.59870,45.83590,Rossillon
01331,01,5.45680,46.09680,Saint-Alban
01332,01,4.91320,46.29750,Saint-André-de-Bâgé
01333,01,4.95290,45.92870,Saint-André-de-Corcy
01334,01,4.91440,46.21630,Saint-André-d'Huiriat
01335,01,5.07750,46.11370,Saint-André-le-Bouchoux
01336,01,5.14300,46.15000,Saint-André-sur-Vieux-Jonc
01337,01,4.95200,46.45170,Saint-Bénigne
01338,01,5.58230,45.70110,Groslée-Saint-Benoit
01339,01,4.74190,45.95000,Saint-Bernard
01342,01,5.04770,45.89780,Sainte-Croix
01343,01,4.96690,46.27510,Saint-Cyr-sur-Menthon
01344,01,5.18250,46.20970,Saint-Denis-lès-Bourg
01345,01,5.32600,45.94970,Saint-Denis-en-Bugey
01346,01,5.05360,46.30750,Saint-Didier-d'Aussiat
01347,01,4.77670,45.95870,Saint-Didier-de-Formans
01348,01,4.82300,46.18770,Saint-Didier-sur-Chalaronne
01349,01,5.15070,45.93430,Saint-Éloi
01350,01,5.27930,46.27550,Saint-Étienne-du-Bois
01351,01,4.86940,46.14510,Saint-Étienne-sur-Chalaronne
01352,01,5.00310,46.39980,Saint-Étienne-sur-Reyssouze
01353,01,4.79270,45.96510,Sainte-Euphémie
01354,01,6.03680,46.25560,Saint-Genis-Pouilly
01355,01,5.01620,46.28100,Saint-Genis-sur-Menthon
01356,01,5.02860,46.10330,Saint-Georges-sur-Renon
01357,01,5.74350,46.18120,Saint-Germain-de-Joux
01358,01,5.61910,45.77300,Saint-Germain-les-Paroisses
01359,01,5.06260,46.07640,Saint-Germain-sur-Renon
01360,01,5.93950,46.21840,Saint-Jean-de-Gonville
01361,01,5.20660,45.83840,Saint-Jean-de-Niost
01362,01,4.89590,45.95970,Saint-Jean-de-Thurigneux
01363,01,5.37990,46.02800,Saint-Jean-le-Vieux
01364,01,5.05820,46.39120,Saint-Jean-sur-Reyssouze
01365,01,4.92030,46.26870,Saint-Jean-sur-Veyle
01366,01,5.28370,45.88020,Sainte-Julie
01367,01,5.10620,46.39770,Saint-Julien-sur-Reyssouze
01368,01,4.95590,46.20720,Saint-Julien-sur-Veyle
01369,01,5.28500,46.19480,Saint-Just
01370,01,4.83950,46.30530,Saint-Laurent-sur-Saône
01371,01,4.98620,45.94850,Saint-Marcel
01372,01,5.67790,45.84670,Saint-Martin-de-Bavel
01373,01,5.57110,46.13450,Saint-Martin-du-Frêne
01374,01,5.33000,46.10630,Saint-Martin-du-Mont
01375,01,5.12060,46.29030,Saint-Martin-le-Châtel
01376,01,4.97630,45.83250,Saint-Maurice-de-Beynost
01378,01,5.17200,45.81900,Saint-Maurice-de-Gourdans
01379,01,5.27060,45.95420,Saint-Maurice-de-Rémens
01380,01,5.17160,46.45490,Saint-Nizier-le-Bouchoux
01381,01,5.14710,46.05180,Saint-Nizier-le-Désert
01382,01,4.93490,46.01470,Sainte-Olive
01383,01,5.13090,46.09490,Saint-Paul-de-Varax
01384,01,5.44180,45.95300,Saint-Rambert-en-Bugey
01385,01,5.16460,46.18570,Saint-Rémy
01386,01,5.36900,45.88630,Saint-Sorlin-en-Bugey
01387,01,5.04060,46.32150,Saint-Sulpice
01388,01,5.06720,46.45800,Saint-Trivier-de-Courtes
01389,01,4.89840,46.06320,Saint-Trivier-sur-Moignans
01390,01,5.26700,45.82340,Saint-Vulbas
01391,01,5.34570,46.36300,Salavre
01392,01,5.58260,46.27320,Samognat
01393,01,4.98240,46.07090,Sandrans
01396,01,5.40070,45.86120,Sault-Brénaz
01397,01,6.11020,46.31320,Sauverny
01398,01,4.85590,45.99460,Savigneux
01399,01,6.07320,46.29440,Ségny
01400,01,5.50400,45.80060,Seillonnaz
01401,01,5.98720,46.26150,Sergy
01402,01,4.97330,46.49870,Sermoyer
01403,01,5.44240,45.81290,Serrières-de-Briord
01404,01,5.44720,46.14900,Serrières-sur-Ain
01405,01,5.18450,46.13660,Servas
01406,01,5.05870,46.43540,Servignat
01407,01,5.82570,45.94770,Seyssel
01408,01,5.42140,46.23500,Simandre-sur-Suran
01410,01,5.50150,46.22350,Sonthonnax-la-Montagne
01411,01,5.43680,45.88110,Souclin
01412,01,4.96010,46.17270,Sulignat
01415,01,5.71990,45.86270,Talissieu
01416,01,5.51470,45.92220,Tenay
01418,01,5.01890,45.81840,Thil
01419,01,5.96850,46.24480,Thoiry
01420,01,4.79630,46.16970,Thoissey
01421,01,5.40560,45.91890,Torcieu
01422,01,5.30760,46.13550,Tossiat
01423,01,4.82890,45.96100,Toussieux
01424,01,4.96240,45.87420,Tramoyes
01425,01,5.26560,46.09150,La Tranclière
01426,01,5.35370,46.28160,Val-Revermont
01427,01,4.77100,45.93980,Trévoux
01428,01,4.86460,46.11450,Valeins
01429,01,5.07860,46.21550,Vandeins
01430,01,5.29090,46.04430,Varambon
01431,01,5.36120,45.91840,Vaux-en-Bugey
01432,01,5.34720,46.34660,Verjon
01433,01,5.10360,46.48610,Vernoux
01434,01,5.11500,45.98830,Versailleux
01435,01,6.10080,46.29920,Versonnex
01436,01,6.08560,46.36340,Vesancy
01437,01,5.02860,46.47430,Vescours
01439,01,4.86380,46.35930,Vésines
01441,01,5.55550,46.08230,Vieu-d'Izenave
01443,01,5.04430,46.00000,Villars-les-Dombes
01444,01,5.44830,45.84990,Villebois
01445,01,5.30870,46.34180,Villemotier
01446,01,4.85980,46.03460,Villeneuve
01447,01,5.39360,46.19390,Villereversure
01448,01,5.75980,46.09520,Villes
01449,01,5.25400,46.01250,Villette-sur-Ain
01450,01,5.22650,45.92900,Villieu-Loyes-Mollon
01451,01,5.22570,46.25220,Viriat
01452,01,5.63900,45.84650,Virieu-le-Grand
01453,01,5.73460,45.91530,Arvière-en-Valromey
01454,01,5.71490,45.72820,Virignin
01456,01,5.72550,45.81220,Vongnes
01457,01,4.99450,46.21320,Vonnas
02001,02,3.18240,49.59970,Abbécourt
02002,02,3.39740,49.69350,Achery
02003,02,3.41880,49.34760,Acy
02004,02,3.96370,49.71720,Agnicourt-et-Séchelles
02005,02,3.96630,49.39530,Aguilcourt
02006,02,3.51210,49.93130,Aisonville-et-Bernoville
02007,02,3.82110,49.48650,Aizelles
02008,02,3.51280,49.43720,Aizy-Jouy
02009,02,3.36920,49.76810,Alaincourt
02010,02,3.45910,49.46390,Allemant
02011,02,3.16810,49.37410,Ambleny
02012,02,3.40580,49.32260,Ambrief
02013,02,3.92180,49.49770,Amifontaine
02014,02,3.30590,49.61110,Amigny-Rouy
02015,02,3.20650,49.21960,Ancienville
02016,02,3.36860,49.64280,Andelain
02017,02,3.42400,49.69710,Anguilcourt-le-Sart
02018,02,3.44260,49.51590,Anizy-le-Grand
02019,02,3.17610,49.71220,Annois
02020,02,4.21900,49.88510,Any-Martin-Rieux
02021,02,4.11760,49.74440,Archon
02022,02,3.47760,49.25570,Arcy-Sainte-Restitue
02023,02,3.39160,49.17310,Armentières-sur-Ourcq
02024,02,3.76470,49.49850,Arrancy
02025,02,3.19600,49.76230,Artemps
02027,02,3.55470,49.67880,Assis-sur-Serre
02028,02,3.69050,49.57540,Athies-sous-Laon
02029,02,3.15330,49.85570,Attilly
02030,02,3.26140,50.02480,Aubencheul-aux-Bois
02031,02,4.19280,49.82540,Aubenton
02032,02,3.11670,49.77240,Aubigny-aux-Kaisnes
02033,02,3.79210,49.49500,Aubigny-en-Laonnois
02034,02,3.12680,49.47790,Audignicourt
02035,02,3.63140,49.86510,Audigny
02036,02,3.51170,49.34050,Augy
02037,02,3.61110,49.62130,Aulnois-sous-Laon
02038,02,4.22400,49.76030,Les Autels
02039,02,3.79310,49.70420,Autremencourt
02040,02,3.85710,49.89630,Autreppes
02041,02,3.23780,49.58780,Autreville
02042,02,3.35750,49.00610,Azy-sur-Marne
02043,02,3.27760,49.45950,Bagneux
02044,02,4.03830,49.79970,Bancigny
02046,02,3.66120,49.62170,Barenton-Bugny
02047,02,3.64480,49.64660,Barenton-Cel
02048,02,3.69290,49.66820,Barenton-sur-Serre
02049,02,3.33200,49.58140,Barisis-aux-Bois
02050,02,3.75220,50.03780,Barzy-en-Thiérache
02051,02,3.55860,49.09000,Barzy-sur-Marne
02052,02,3.38280,49.53280,Bassoles-Aulers
02053,02,3.62030,49.00090,Vallées en Champagne
02054,02,3.61840,49.29910,Bazoches-et-Saint-Thibaut
02055,02,4.15290,49.81870,Beaumé
02056,02,3.13170,49.68760,Beaumont-en-Beine
02057,02,3.33200,49.99650,Beaurevoir
02058,02,3.75940,49.40290,Beaurieux
02059,02,3.33610,49.64720,Beautor
02060,02,3.10230,49.83310,Beauvois-en-Vermandois
02061,02,3.45800,50.01430,Becquigny
02062,02,3.30360,49.08030,Belleau
02063,02,3.24310,49.92410,Bellenglise
02064,02,3.34390,49.35970,Belleu
02065,02,3.22840,49.95810,Bellicourt
02066,02,3.30760,49.75560,Benay
02067,02,3.71140,50.03000,Bergues-sur-Sambre
02068,02,3.75700,49.77990,Berlancourt
02069,02,4.11040,49.66280,Berlise
02070,02,3.48270,49.88270,Bernot
02071,02,3.15200,49.41180,Berny-Rivière
02072,02,3.85310,49.48280,Berrieux
02073,02,3.89470,49.40760,Berry-au-Bac
02074,02,3.39880,49.62830,Bertaucourt-Epourdon
02075,02,3.37300,49.77870,Berthenicourt
02076,02,4.01160,49.39750,Bertricourt
02078,02,3.16570,49.53480,Besmé
02079,02,4.11600,49.82090,Besmont
02080,02,3.57780,49.59140,Besny-et-Loizy
02081,02,3.13760,49.62740,Béthancourt-en-Vaux
02082,02,3.41870,49.22430,Beugneux
02083,02,3.48840,49.12780,Beuvardes
02084,02,3.22830,49.01010,Bézu-le-Guéry
02085,02,3.40820,49.10450,Bézu-Saint-Germain
02086,02,3.21350,49.57870,Bichancourt
02087,02,3.26870,49.44690,Bieuxy
02088,02,3.71410,49.49230,Bièvres
02089,02,3.37530,49.35550,Billy-sur-Aisne
02090,02,3.30100,49.22330,Billy-sur-Ourcq
02091,02,3.67020,49.33780,Blanzy-lès-Fismes
02093,02,3.14900,49.51000,Blérancourt
02094,02,3.46280,49.02580,Blesmes
02095,02,3.46400,49.98870,Bohain-en-Vermandois
02096,02,3.65670,49.73830,Bois-lès-Pargny
02097,02,3.95530,49.62870,Boncourt
02098,02,3.34760,49.00770,Bonneil
02099,02,3.32730,49.12350,Bonnesvalyn
02100,02,3.21800,49.98960,Bony
02101,02,3.86640,49.73810,Bosmont-sur-Serre
02102,02,3.76090,49.46060,Bouconville-Vauclair
02103,02,3.71260,50.01010,Boué
02104,02,3.84700,49.37760,Bouffignereux
02105,02,3.31910,49.06650,Bouresches
02106,02,3.65650,49.40380,Bourg-et-Comin
02107,02,3.15790,49.54170,Bourguignon-sous-Coucy
02108,02,3.53890,49.52800,Bourguignon-sous-Montbavin
02109,02,3.96020,49.87380,La Bouteille
02110,02,3.53570,49.34880,Braine
02111,02,3.41280,49.51700,Brancourt-en-Laonnois
02112,02,3.39560,49.97980,Brancourt-le-Grand
02114,02,3.41950,49.05790,Brasles
02115,02,3.60960,49.43700,Braye-en-Laonnois
02116,02,3.96230,49.76650,Braye-en-Thiérache
02117,02,3.14200,49.77380,Bray-Saint-Christophe
02118,02,3.37690,49.42220,Braye
02119,02,3.42630,49.14020,Brécy
02120,02,3.54590,49.36940,Brenelle
02121,02,3.35130,49.18260,Breny
02122,02,3.47220,49.59920,Brie
02123,02,3.40420,49.72240,Brissay-Choigny
02124,02,3.40110,49.74580,Brissy-Hamégicourt
02125,02,3.15280,49.11240,Brumetz
02126,02,4.18800,49.76860,Brunehamel
02127,02,3.44500,49.19940,Bruyères-sur-Fère
02128,02,3.66980,49.51840,Bruyères-et-Montbérault
02129,02,3.56690,49.25950,Bruys
02130,02,4.09380,49.86360,Bucilly
02131,02,3.39230,49.39000,Bucy-le-Long
02132,02,3.49300,49.57990,Bucy-lès-Cerny
02133,02,3.90400,49.64940,Bucy-lès-Pierrepont
02134,02,4.05610,49.90800,Buire
02135,02,3.83710,49.95800,Buironfosse
02136,02,3.91480,49.77020,Burelles
02137,02,3.25010,49.07490,Bussiares
02138,02,3.34870,49.30860,Buzancy
02139,02,3.12260,49.61740,Caillouël-Crépigny
02140,02,3.12430,49.52440,Camelin
02141,02,3.91460,49.97050,La Capelle
02142,02,3.25760,49.80300,Castres
02143,02,3.24250,50.00080,Le Catelet
02144,02,3.10780,49.86460,Caulaincourt
02145,02,3.17300,49.63740,Caumont
02146,02,3.57030,49.01580,Celles-lès-Condé
02148,02,3.47010,49.41350,Celles-sur-Aisne
02149,02,3.33460,49.76670,Cerizy
02150,02,3.68030,49.44920,Cerny-en-Laonnois
02151,02,3.54660,49.57910,Cerny-lès-Bucy
02152,02,3.51750,49.32590,Cerseuil
02153,02,3.48170,49.55750,Cessières-Suzy
02154,02,3.39640,49.30080,Chacrise
02155,02,3.52330,49.50870,Chaillevois
02156,02,3.64740,49.66910,Chalandry
02157,02,3.67190,49.59850,Chambry
02158,02,3.67100,49.47230,Chamouille
02159,02,3.25700,49.53800,Champs
02160,02,3.98370,49.70300,Chaourse
02162,02,3.37500,48.94950,La Chapelle-sur-Chézy
02163,02,3.29360,48.98210,Charly-sur-Marne
02164,02,3.54460,49.11060,Le Charmel
02165,02,3.38340,49.65240,Charmes
02166,02,3.50400,49.08940,Chartèves
02167,02,3.50460,49.37780,Chassemy
02168,02,3.37840,49.05560,Château-Thierry
02169,02,3.69860,49.76290,Châtillon-lès-Sons
02170,02,3.41730,49.79510,Châtillon-sur-Oise
02171,02,3.78800,49.39680,Chaudardes
02172,02,3.25080,49.31410,Chaudun
02173,02,3.21920,49.61850,Chauny
02174,02,3.51550,49.47820,Chavignon
02175,02,3.30900,49.42290,Chavigny
02176,02,3.56140,49.40810,Chavonne
02177,02,3.68780,49.51470,Chérêt
02178,02,3.71960,49.46400,Chermizy-Ailles
02179,02,3.60810,49.25290,Chéry-Chartreuve
02180,02,3.58860,49.64790,Chéry-lès-Pouilly
02181,02,4.10260,49.72450,Chéry-lès-Rozoy
02182,02,3.73860,49.81960,Chevennes
02183,02,3.59500,49.47000,Chevregny
02184,02,3.58430,49.76570,Chevresis-Monceau
02185,02,3.15650,49.12470,Chézy-en-Orxois
02186,02,3.38820,48.98570,Chézy-sur-Marne
02187,02,3.43210,49.03260,Chierry
02188,02,3.77280,49.92910,Chigny
02189,02,3.85760,49.62560,Chivres-en-Laonnois
02190,02,3.43710,49.40480,Chivres-Val
02191,02,3.58380,49.53340,Chivy-lès-Étouvelles
02192,02,3.24330,49.21540,Chouy
02193,02,3.60220,49.16590,Cierges
02194,02,3.84210,49.74730,Cilly
02195,02,3.46640,49.36930,Ciry-Salsogne
02196,02,3.56510,49.55460,Clacy-et-Thierret
02197,02,3.99190,49.96900,Clairfontaine
02198,02,3.36540,49.42740,Clamecy
02199,02,3.22800,49.74910,Clastres
02200,02,3.94480,49.66020,Clermont-les-Fermes
02201,02,3.14960,49.32400,Cœuvres-et-Valsery
02203,02,3.43310,49.15480,Coincy
02204,02,4.09560,49.79280,Coingt
02205,02,3.62800,49.46960,Colligis-Crandelain
02206,02,3.71170,49.85750,Colonfay
02207,02,3.14880,49.64150,Commenchon
02208,02,3.78280,49.37810,Concevreux
02209,02,3.56020,48.99990,Condé-en-Brie
02210,02,3.46840,49.40140,Condé-sur-Aisne
02211,02,3.94470,49.41470,Condé-sur-Suippe
02212,02,3.27670,49.63320,Condren
02213,02,3.53200,49.03570,Connigis
02214,02,3.23430,49.79210,Contescourt
02215,02,3.82560,49.46130,Corbeny
02216,02,3.19570,49.25280,Corcy
02217,02,3.31780,49.51400,Coucy-le-Château-Auffrique
02218,02,3.78110,49.55600,Coucy-lès-Eppes
02219,02,3.34130,49.54140,Coucy-la-Ville
02220,02,3.62380,49.19580,Coulonges-Cohan
02221,02,3.27490,49.03040,Coupru
02222,02,3.45670,49.68040,Courbes
02223,02,3.51270,48.99560,Courboin
02224,02,3.57600,49.34640,Courcelles-sur-Vesle
02225,02,3.26100,49.11520,Courchamps
02226,02,3.29940,49.34560,Courmelles
02227,02,3.57120,49.14110,Courmont
02228,02,3.54140,49.07190,Courtemont-Varennes
02229,02,3.79530,49.51520,Courtrizy-et-Fussigny
02230,02,3.48500,49.33280,Couvrelles
02231,02,3.51500,49.64640,Couvron-et-Aumencourt
02232,02,3.02100,49.21600,Coyolles
02233,02,3.45550,49.22690,Cramaille
02234,02,3.79470,49.44910,Craonne
02235,02,3.77550,49.42510,Craonnelle
02236,02,3.31410,49.48460,Crécy-au-Mont
02237,02,3.61880,49.69300,Crécy-sur-Serre
02238,02,3.50880,49.60890,Crépy
02239,02,3.51690,49.04050,Crézancy
02240,02,3.39370,49.93290,Croix-Fonsomme
02241,02,3.35020,49.15890,La Croix-sur-Ourcq
02242,02,3.24700,48.97750,Crouttes-sur-Marne
02243,02,3.36840,49.40730,Crouy
02244,02,3.75550,49.92990,Crupilly
02245,02,3.31970,49.40860,Cuffies
02246,02,3.15180,49.70970,Cugny
02248,02,3.82060,49.68350,Cuirieux
02249,02,3.49030,49.28860,Cuiry-Housse
02250,02,3.76210,49.39190,Cuiry-lès-Chaudardes
02251,02,4.10450,49.76610,Cuiry-lès-Iviers
02252,02,3.70560,49.40130,Cuissy-et-Geny
02253,02,3.24520,49.42200,Cuisy-en-Almont
02254,02,3.19070,49.34500,Cutry
02255,02,3.57170,49.38380,Cys-la-Commune
02256,02,4.04370,49.76850,Dagny-Lambercy
02257,02,3.23270,49.82490,Dallon
02258,02,3.17230,49.14600,Dammard
02259,02,3.14710,49.24080,Dampleux
02260,02,3.40370,49.66580,Danizy
02261,02,3.68470,49.71270,Dercy
02262,02,3.35710,49.62710,Deuillet
02263,02,3.61480,49.35910,Dhuizel
02264,02,4.01710,49.63510,Dizy-le-Gros
02265,02,4.14210,49.76600,Dohis
02266,02,4.08730,49.72950,Dolignon
02267,02,3.21650,49.33140,Dommiers
02268,02,3.27050,49.01510,Domptin
02269,02,3.70140,49.96560,Dorengt
02270,02,3.12960,49.79590,Douchy
02271,02,3.63950,49.24250,Dravegny
02272,02,3.38640,49.27460,Droizy
02273,02,3.13220,49.75160,Dury
02274,02,3.88710,49.67830,Ébouleau
02275,02,3.98790,49.91910,Effry
02276,02,3.80810,49.92510,Englancourt
02277,02,3.25650,49.47290,Épagny
02278,02,4.07100,49.88530,Éparcy
02279,02,3.35630,49.10220,Épaux-Bézu
02280,02,3.45790,49.10230,Épieds
02281,02,3.44520,48.89880,L'Épine-aux-Bois
02282,02,3.73970,49.55090,Eppes
02283,02,3.70730,49.73300,Erlon
02284,02,3.83940,49.92040,Erloy
02286,02,3.75840,49.97790,Esquéhéries
02287,02,3.27320,49.77420,Essigny-le-Grand
02288,02,3.36860,49.89850,Essigny-le-Petit
02289,02,3.41620,48.96740,Essises
02290,02,3.34270,49.03300,Essômes-sur-Marne
02291,02,3.28020,49.96860,Estrées
02292,02,3.41750,49.03190,Étampes-sur-Marne
02293,02,3.45190,49.93100,Étaves-et-Bocquiaux
02294,02,3.58070,49.51710,Étouvelles
02295,02,3.93990,49.90140,Étréaupont
02296,02,3.15650,49.83090,Étreillers
02297,02,3.35150,49.08250,Étrépilly
02298,02,3.65540,49.99850,Étreux
02299,02,4.03900,49.45730,Évergnicourt
02302,02,3.18270,49.22550,Faverolles
02303,02,3.25330,49.87100,Fayet
02304,02,3.36940,49.66830,La Fère
02305,02,3.51260,49.18330,Fère-en-Tardenois
02306,02,3.55060,49.74550,La Ferté-Chevresis
02307,02,3.14410,49.17290,La Ferté-Milon
02308,02,3.69720,50.04770,Fesmy-le-Sart
02309,02,3.76090,49.52550,Festieux
02310,02,3.44500,49.89740,Fieulaine
02312,02,3.92050,50.00210,La Flamengrie
02313,02,3.67410,49.88680,Flavigny-le-Grand-et-Beaurain
02315,02,3.19210,49.70860,Flavy-le-Martel
02316,02,3.15530,49.26790,Fleury
02317,02,3.15690,49.79950,Fluquières
02318,02,3.28960,49.55000,Folembray
02319,02,3.39610,49.89980,Fonsomme
02320,02,3.21270,49.80910,Fontaine-lès-Clercs
02321,02,3.90840,49.85120,Fontaine-lès-Vervins
02322,02,3.42400,49.88100,Fontaine-Notre-Dame
02323,02,3.36890,49.92660,Fontaine-Uterte
02324,02,3.84890,50.02990,Fontenelle
02326,02,3.19360,49.41080,Fontenoy
02327,02,3.09520,49.80560,Foreste
02328,02,3.48210,49.04260,Fossoy
02329,02,3.45690,49.61700,Fourdrain
02330,02,3.22960,49.85580,Francilly-Selency
02331,02,3.79740,49.81870,Franqueville
02332,02,3.55110,49.14480,Fresnes-en-Tardenois
02333,02,3.36780,49.55230,Fresnes-sous-Coucy
02334,02,3.41700,49.95530,Fresnoy-le-Grand
02335,02,3.42890,49.62900,Fressancourt
02336,02,3.23660,49.68410,Frières-Faillouël
02337,02,3.90970,49.94320,Froidestrées
02338,02,3.72000,49.67930,Froidmont-Cohartille
02339,02,3.17820,49.07960,Gandelu
02340,02,3.28460,49.82330,Gauchy
02341,02,3.87260,49.81450,Gercy
02342,02,3.93000,49.93390,Gergny
02343,02,3.12070,49.81350,Germaine
02345,02,3.28400,49.74260,Gibercourt
02346,02,3.76610,49.61180,Gizy
02347,02,3.46020,49.05900,Gland
02349,02,3.85680,49.49230,Goudelancourt-lès-Berrieux
02350,02,3.85290,49.67980,Goudelancourt-lès-Pierrepont
02351,02,3.65410,49.16360,Goussancourt
02352,02,3.26180,49.99380,Gouy
02353,02,3.73780,49.65380,Grandlup-et-Fay
02354,02,4.18620,49.73120,Grandrieux
02355,02,3.23940,49.88760,Gricourt
02356,02,3.37180,49.12980,Grisolles
02357,02,3.87750,49.79720,Gronard
02358,02,3.52810,49.95010,Grougis
02359,02,3.27870,49.81060,Grugies
02360,02,3.97440,49.44090,Villeneuve-sur-Aisne
02361,02,3.62290,49.89730,Guise
02362,02,3.11960,49.65040,Guivry
02363,02,3.26410,49.51170,Guny
02364,02,3.84120,49.35790,Guyencourt
02366,02,3.61630,49.97620,Hannapes
02367,02,3.18380,49.78140,Happencourt
02368,02,3.02190,49.28620,Haramont
02369,02,3.97670,49.80810,Harcigny
02370,02,3.18840,49.96700,Hargicourt
02371,02,3.33470,49.84040,Harly
02372,02,3.35880,49.27950,Hartennes-et-Taux
02373,02,3.91540,49.79800,Hary
02374,02,3.27770,49.91220,Lehaucourt
02375,02,3.23170,49.11400,Hautevesnes
02376,02,3.52500,49.88800,Hauteville
02377,02,3.83520,49.87090,Haution
02378,02,4.04140,49.88280,La Hérie
02379,02,3.65440,49.82140,Le Hérie-la-Viéville
02380,02,3.29430,49.74620,Hinacourt
02381,02,4.11320,49.93800,Hirson
02382,02,3.20070,49.86100,Holnon
02383,02,3.37090,49.85690,Homblières
02384,02,3.85020,49.78710,Houry
02385,02,3.69580,49.79410,Housset
02386,02,3.66560,49.95170,Iron
02387,02,3.35010,49.80300,Itancourt
02388,02,4.13920,49.78810,Iviers
02389,02,3.53150,49.08840,Jaulgonne
02390,02,3.14590,49.93080,Jeancourt
02391,02,4.07100,49.81420,Jeantes
02392,02,3.30430,49.96040,Joncourt
02393,02,3.52940,49.29470,Jouaignes
02395,02,3.34840,49.51510,Jumencourt
02396,02,3.72560,49.40810,Jumigny
02397,02,3.23570,49.71680,Jussy
02398,02,3.31780,49.44880,Juvigny
02399,02,3.89040,49.45040,Juvincourt-et-Damary
02400,02,3.43560,49.45060,Laffaux
02401,02,3.85730,49.86340,Laigny
02402,02,3.07270,49.82970,Lanchy
02403,02,3.60400,49.82930,Landifay-et-Bertaignemont
02404,02,3.99340,49.84450,Landouzy-la-Cour
02405,02,4.04890,49.85780,Landouzy-la-Ville
02406,02,3.37170,49.51040,Landricourt
02407,02,3.53360,49.54610,Laniscourt
02408,02,3.61300,49.57110,Laon
02409,02,3.96890,49.59290,Lappion
02410,02,3.05590,49.26270,Largny-sur-Automne
02411,02,3.31230,49.15400,Latilly
02412,02,3.40340,49.26320,Launoy
02413,02,3.58620,49.50300,Laval-en-Laonnois
02414,02,3.71630,49.94530,Lavaqueresse
02415,02,3.14750,49.35410,Laversine
02416,02,3.75800,49.84220,Lemé
02417,02,3.17530,49.99760,Lempire
02418,02,3.88310,49.95040,Lerzy
02419,02,3.77390,49.96300,Leschelle
02420,02,3.31220,49.90360,Lesdins
02421,02,3.49820,49.30800,Lesges
02422,02,3.62770,49.93120,Lesquielles-Saint-Germain
02423,02,3.35010,49.47550,Leuilly-sous-Coucy
02424,02,3.34150,49.42460,Leury
02425,02,4.16750,49.85860,Leuze
02426,02,3.31220,49.93420,Levergies
02427,02,3.54310,49.27340,Lhuys
02428,02,3.26540,49.10260,Licy-Clignon
02429,02,3.62180,49.48800,Lierval
02430,02,3.82710,49.61150,Liesse-Notre-Dame
02431,02,3.30020,49.69330,Liez
02432,02,3.55590,49.32490,Limé
02433,02,4.01980,49.67630,Lislet
02435,02,4.22350,49.83200,Logny-lès-Aubenton
02438,02,3.22020,49.28570,Longpont
02439,02,3.67760,49.35550,Les Septvallons
02440,02,4.05440,49.53080,Lor
02441,02,3.24290,49.25660,Louâtre
02442,02,3.52510,49.24370,Loupeigne
02443,02,3.27550,49.05560,Lucy-le-Bocage
02444,02,3.81140,49.78020,Lugny
02445,02,3.95970,49.93150,Luzoir
02446,02,3.31100,49.73290,Ly-Fontaine
02447,02,3.45350,49.29350,Maast-et-Violaine
02448,02,3.84150,49.65090,Mâchecourt
02449,02,3.21860,49.15700,Macogny
02450,02,3.56900,49.87140,Macquigny
02451,02,3.27400,49.93710,Magny-la-Fosse
02452,02,3.18570,49.89240,Maissemy
02453,02,3.71340,49.37540,Maizy
02454,02,3.99510,49.51680,La Malmaison
02455,02,3.73170,49.92100,Malzy
02456,02,3.18050,49.56530,Manicamp
02457,02,3.81900,49.58670,Marchais
02458,02,3.50920,48.89170,Dhuys et Morin-en-Brie
02459,02,3.41590,49.85180,Marcy
02460,02,3.73460,49.74870,Marcy-sous-Marle
02461,02,3.14880,49.59420,Marest-Dampcourt
02462,02,3.56270,49.24460,Mareuil-en-Dôle
02463,02,3.76410,49.80850,Marfontaine
02464,02,3.40720,49.43220,Margival
02465,02,3.21950,49.05510,Marigny-en-Orxois
02466,02,3.19710,49.18100,Marizy-Sainte-Geneviève
02467,02,3.22700,49.18230,Marizy-Saint-Mard
02468,02,3.76540,49.74440,Marle
02469,02,3.78560,49.88940,Marly-Gomont
02470,02,4.13570,49.86720,Martigny
02471,02,3.68720,49.49190,Martigny-Courpierre
02472,02,3.79680,49.54370,Mauregny-en-Haye
02473,02,3.39620,49.70930,Mayot
02474,02,3.27260,49.69150,Mennessis
02476,02,3.55680,49.99250,Mennevret
02477,02,3.26930,49.36750,Mercin-et-Vaux
02478,02,3.49900,49.51660,Merlieux-et-Fouquerolles
02480,02,3.53670,49.71320,Mesbrecourt-Richecourt
02481,02,3.36570,49.83120,Mesnil-Saint-Laurent
02482,02,3.76210,49.35830,Meurival
02483,02,3.38640,49.79030,Mézières-sur-Oise
02484,02,3.51250,49.06340,Mézy-Moulins
02485,02,3.24910,49.33530,Missy-aux-Bois
02486,02,3.78620,49.62910,Missy-lès-Pierrepont
02487,02,3.43990,49.38490,Missy-sur-Aisne
02488,02,3.53000,50.03200,Molain
02489,02,3.54070,49.56140,Molinchart
02490,02,3.57310,49.47150,Monampteuil
02491,02,3.63110,49.78260,Monceau-le-Neuf-et-Faucouzy
02492,02,3.48130,49.66210,Monceau-lès-Leups
02493,02,3.71820,49.62280,Monceau-le-Waast
02494,02,3.69790,49.90990,Monceau-sur-Oise
02495,02,4.05870,49.96290,Mondrepuis
02496,02,3.22820,49.14730,Monnes
02497,02,3.55310,49.53720,Mons-en-Laonnois
02498,02,3.84470,49.55500,Montaigu
02499,02,3.51350,49.53010,Montbavin
02500,02,3.35640,49.96360,Montbrehain
02501,02,3.72280,49.51370,Montchâlons
02502,02,4.02620,49.68970,Montcornet
02503,02,3.52610,49.85310,Mont-d'Origny
02504,02,3.25810,49.73620,Montescourt-Lizerolles
02505,02,3.43120,48.95010,Montfaucon
02506,02,3.17640,49.28920,Montgobert
02507,02,3.32600,49.17700,Montgru-Saint-Hilaire
02508,02,3.65550,49.49000,Monthenault
02509,02,3.29520,49.10870,Monthiers
02510,02,3.55050,49.02860,Monthurel
02511,02,3.48580,49.91400,Montigny-en-Arrouaise
02512,02,3.10530,49.12450,Montigny-l'Allier
02513,02,3.91880,49.68760,Montigny-le-Franc
02514,02,3.09750,49.37410,Montigny-Lengrain
02515,02,3.56650,48.98200,Montigny-lès-Condé
02516,02,3.80510,49.74000,Montigny-sous-Marle
02517,02,3.58390,49.71260,Montigny-sur-Crécy
02518,02,3.51780,48.95770,Montlevon
02519,02,4.06520,49.66440,Montloué
02520,02,3.58060,49.29330,Mont-Notre-Dame
02521,02,3.19730,49.02580,Montreuil-aux-Lions
02522,02,4.21020,49.79410,Mont-Saint-Jean
02523,02,3.64090,49.27540,Mont-Saint-Martin
02524,02,3.47760,49.08090,Mont-Saint-Père
02525,02,3.33780,49.87830,Morcourt
02526,02,4.07840,49.75570,Morgny-en-Thiérache
02527,02,3.18960,49.46200,Morsain
02528,02,3.08000,49.33660,Mortefontaine
02529,02,3.66580,49.69660,Mortiers
02530,02,3.67890,49.42090,Moulins
02531,02,3.64030,49.41450,Moussy-Verneuil
02532,02,3.35120,49.75040,Moÿ-de-l'Aisne
02533,02,3.43820,49.27890,Muret-et-Crouttes
02534,02,3.74410,49.35890,Muscourt
02535,02,3.99990,49.77750,Nampcelles-la-Cour
02536,02,3.43440,49.30500,Nampteuil-sous-Muret
02537,02,3.44560,49.43440,Nanteuil-la-Fosse
02538,02,3.41050,49.19120,Nanteuil-Notre-Dame
02539,02,3.25890,49.95140,Nauroy
02540,02,3.44860,49.00080,Nesles-la-Montagne
02541,02,4.02420,49.43820,Neufchâtel-sur-Aisne
02542,02,3.15960,49.61730,Neuflieux
02543,02,3.26660,49.16500,Neuilly-Saint-Front
02544,02,4.03940,49.92810,Neuve-Maison
02545,02,3.83460,49.71520,La Neuville-Bosmont
02546,02,3.15830,49.67590,La Neuville-en-Beine
02547,02,3.72910,49.78990,La Neuville-Housset
02548,02,3.68510,49.98320,La Neuville-lès-Dorengt
02549,02,3.33950,49.82010,Neuville-Saint-Amand
02550,02,3.69860,49.47050,Neuville-sur-Ailette
02551,02,3.39850,49.45420,Neuville-sur-Margival
02552,02,3.46950,49.85530,Neuvillette
02553,02,4.03480,49.57330,Nizy-le-Comte
02554,02,3.40420,49.01520,Nogentel
02555,02,3.33130,48.94250,Nogent-l'Artaud
02556,02,4.09480,49.66910,Noircourt
02557,02,3.20700,49.20310,Noroy-sur-Ourcq
02558,02,3.80800,50.00970,Le Nouvion-en-Thiérache
02559,02,3.49540,49.70690,Nouvion-et-Catillon
02560,02,3.45900,49.70860,Nouvion-le-Comte
02561,02,3.60520,49.51080,Nouvion-le-Vineux
02562,02,3.18990,49.43490,Nouvron-Vingré
02563,02,3.53670,49.90560,Noyales
02564,02,3.30670,49.32000,Bernoy-le-Château
02565,02,3.68180,49.39300,Œuilly
02566,02,3.18970,49.61600,Ognes
02567,02,4.00780,49.92160,Ohis
02568,02,3.12870,49.21300,Oigny-en-Valois
02569,02,3.65020,50.02260,Oisy
02570,02,3.14650,49.72870,Ollezy
02571,02,3.29690,49.88000,Omissy
02572,02,4.01230,49.37600,Orainville
02573,02,3.70110,49.50470,Orgeval
02574,02,4.01330,49.88450,Origny-en-Thiérache
02575,02,3.53400,49.82700,Origny-Sainte-Benoite
02576,02,3.23630,49.40000,Osly-Courtil
02577,02,3.56590,49.42940,Ostel
02578,02,3.74060,49.43030,Oulches-la-Vallée-Foulon
02579,02,3.34200,49.20850,Oulchy-la-Ville
02580,02,3.38280,49.20850,Oulchy-le-Château
02581,02,3.60240,49.33210,Paars
02582,02,3.70000,49.42560,Paissy
02583,02,3.64950,49.46310,Pancy-Courtecon
02584,02,3.87990,50.01690,Papleux
02585,02,3.32910,49.26930,Parcy-et-Tigny
02586,02,4.16240,49.74310,Parfondeval
02587,02,3.70620,49.54000,Parfondru
02588,02,3.70030,49.39340,Pargnan
02589,02,3.54910,49.45830,Pargny-et-Filain
02590,02,3.56200,48.95820,Pargny-la-Dhuys
02591,02,3.61830,49.73140,Pargny-les-Bois
02592,02,3.56590,49.79620,Parpeville
02593,02,3.29690,49.40170,Pasly
02594,02,3.18140,49.16500,Passy-en-Valois
02595,02,3.57470,49.06800,Passy-sur-Marne
02596,02,3.28430,48.95520,Pavant
02598,02,3.23360,49.37450,Pernant
02599,02,3.25350,49.56620,Pierremande
02600,02,3.78430,49.64720,Pierrepont
02601,02,4.02330,49.40640,Pignicourt
02602,02,3.46460,49.48730,Pinon
02604,02,3.10470,49.75580,Pithon
02605,02,3.52630,49.79520,Pleine-Selve
02606,02,3.34810,49.23910,Le Plessier-Huleu
02607,02,3.27350,49.33200,Ploisy
02608,02,4.02730,49.81430,Plomion
02609,02,3.73580,49.49520,Ployart-et-Vaurseine
02610,02,3.28050,49.39360,Pommiers
02612,02,3.62150,49.39180,Pont-Arcy
02613,02,3.82710,49.41890,Pontavert
02614,02,3.20070,49.92160,Pontru
02615,02,3.23260,49.91900,Pontruet
02616,02,3.27850,49.49670,Pont-Saint-Mard
02617,02,3.58500,49.67840,Pouilly-sur-Serre
02618,02,3.39280,50.01570,Prémont
02619,02,3.41530,49.54930,Prémontré
02620,02,3.53790,49.38730,Presles-et-Boves
02621,02,3.62310,49.51300,Presles-et-Thierny
02622,02,3.26160,49.13080,Priez
02623,02,3.86040,49.77220,Prisces
02624,02,3.75480,49.88910,Proisy
02625,02,3.57690,49.90200,Proix
02626,02,3.97000,49.48000,Prouvais
02627,02,4.01770,49.47650,Proviseux-et-Plesnoy
02628,02,3.13570,49.29390,Puiseux-en-Retz
02629,02,3.65790,49.84850,Puisieux-et-Clanlieu
02631,02,3.14660,49.56380,Quierzy
02632,02,3.38240,49.50910,Quincy-Basse
02633,02,3.55760,49.30820,Quincy-sous-le-Mont
02634,02,4.16120,49.70280,Raillimont
02635,02,3.33400,49.96110,Ramicourt
02636,02,3.42020,49.83360,Regny
02637,02,3.35280,49.89790,Remaucourt
02638,02,3.52420,49.67990,Remies
02639,02,3.29250,49.71220,Remigny
02640,02,3.45870,49.73350,Renansart
02641,02,4.04110,49.73790,Renneval
02642,02,4.20970,49.74110,Résigny
02643,02,3.15180,49.38290,Ressons-le-Long
02644,02,3.00100,49.31860,Retheuil
02645,02,3.56160,49.05250,Reuilly-Sauvigny
02647,02,3.59030,50.03700,Ribeauville
02648,02,3.47070,49.78530,Ribemont
02649,02,3.39150,49.14270,Rocourt-Saint-Martin
02650,02,3.97240,50.01680,Rocquigny
02651,02,3.41410,49.64930,Rogécourt
02652,02,3.82580,49.76820,Rogny
02653,02,3.33430,48.98490,Romeny-sur-Marne
02654,02,3.73620,49.88990,Romery
02655,02,3.60310,49.13890,Ronchères
02656,02,3.81620,49.37870,Roucy
02657,02,3.78960,49.80600,Rougeries
02658,02,3.18230,49.81210,Roupy
02659,02,3.33150,49.85830,Rouvroy
02660,02,4.17760,49.71630,Rouvroy-sur-Serre
02661,02,3.53900,49.51220,Royaucourt-et-Chailvet
02662,02,3.29440,49.19790,Rozet-Saint-Albin
02663,02,3.36440,49.32280,Rozières-sur-Crise
02664,02,3.44820,48.92690,Rozoy-Bellevalle
02665,02,3.38130,49.24150,Grand-Rozoy
02666,02,4.13480,49.70360,Rozoy-sur-Serre
02667,02,3.24590,49.35090,Saconin-et-Breuil
02668,02,3.70180,49.83040,Sains-Richaumont
02670,02,3.82570,49.89460,Saint-Algis
02671,02,3.18910,49.50850,Saint-Aubin
02672,02,3.14710,49.36430,Saint-Bandry
02673,02,3.13020,49.42960,Saint-Christophe-à-Berry
02674,02,4.07020,49.77410,Saint-Clément
02675,02,3.78150,49.47980,Sainte-Croix
02676,02,3.85640,49.52190,Saint-Erme-Outre-et-Ramecourt
02677,02,3.51730,49.01550,Saint-Eugène
02678,02,4.07440,49.72480,Sainte-Geneviève
02679,02,3.21290,49.11540,Saint-Gengoulph
02680,02,3.39400,49.59660,Saint-Gobain
02681,02,3.83100,49.80470,Saint-Gobert
02682,02,3.58940,49.38320,Saint-Mard
02683,02,3.55410,50.04380,Saint-Martin-Rivière
02684,02,4.15000,49.93100,Saint-Michel
02685,02,3.43910,49.60050,Saint-Nicolas-aux-Bois
02686,02,3.20040,49.54630,Saint-Paul-aux-Bois
02687,02,3.19920,49.31370,Saint-Pierre-Aigle
02688,02,3.81890,49.82460,Saint-Pierre-lès-Franqueville
02689,02,3.87550,49.71780,Saint-Pierremont
02690,02,3.91130,49.61900,Sainte-Preuve
02691,02,3.27900,49.84750,Saint-Quentin
02693,02,3.30340,49.24720,Saint-Rémy-Blanzy
02694,02,3.18180,49.74570,Saint-Simon
02696,02,3.81900,49.50190,Saint-Thomas
02697,02,3.74320,49.59060,Samoussy
02698,02,3.47680,49.43860,Sancy-les-Cheminots
02699,02,3.48960,49.21170,Saponay
02701,02,3.31160,48.98190,Saulchery
02702,02,3.19770,49.83360,Savy
02703,02,3.49490,49.96350,Seboncourt
02704,02,3.20180,49.49750,Selens
02705,02,3.99460,49.57060,La Selve
02706,02,3.36410,49.33750,Septmonts
02707,02,3.38560,49.57040,Septvaux
02708,02,3.34190,49.93010,Sequehart
02709,02,3.36490,50.02390,Serain
02710,02,3.21600,49.78230,Seraucourt-le-Grand
02711,02,3.44920,49.33220,Serches
02712,02,3.56800,49.18200,Sergy
02713,02,3.56060,49.21150,Seringes-et-Nesles
02714,02,3.44630,49.37170,Sermoise
02715,02,3.68170,49.35250,Serval
02716,02,3.34220,49.61940,Servais
02717,02,3.42420,49.76570,Séry-lès-Mézières
02718,02,3.15170,49.19700,Silly-la-Poterie
02719,02,3.26680,49.59310,Sinceny
02720,02,3.92980,49.56850,Sissonne
02721,02,3.42060,49.80890,Sissy
02722,02,3.32350,49.37660,Soissons
02723,02,4.08260,49.69730,Soize
02724,02,3.29030,49.13550,Sommelans
02725,02,3.94320,49.95740,Sommeron
02726,02,3.11780,49.72680,Sommette-Eaucourt
02727,02,3.66820,49.76690,Sons-et-Ronchères
02728,02,3.88080,49.91040,Sorbais
02729,02,3.12290,49.32290,Soucy
02730,02,3.59900,49.41070,Soupir
02731,02,3.75180,49.86640,Le Sourd
02732,02,3.47830,49.74720,Surfontaine
02734,02,3.05020,49.31080,Taillefontaine
02735,02,3.54830,49.28710,Tannières
02736,02,3.23320,49.43680,Tartiers
02737,02,3.92400,49.72870,Tavaux-et-Pontséricourt
02738,02,3.29490,49.65620,Tergnier
02739,02,3.36780,49.44950,Terny-Sorny
02740,02,3.94740,49.81200,Thenailles
02741,02,3.45930,49.83290,Thenelles
02742,02,3.77950,49.76530,Thiernu
02743,02,4.08340,49.64300,Le Thuel
02744,02,3.27390,49.08360,Torcy-en-Valois
02745,02,3.74640,49.69510,Toulis-et-Attencourt
02746,02,3.34540,49.68500,Travecy
02747,02,3.08880,49.86220,Trefcon
02748,02,3.60550,49.09030,Trélou-sur-Marne
02749,02,3.17730,49.19840,Troësnes
02750,02,3.22980,49.51670,Trosly-Loire
02751,02,3.61110,49.47210,Trucy
02752,02,3.16420,49.76760,Tugny-et-Pont
02753,02,3.59830,49.97750,Tupigny
02754,02,3.15690,49.66230,Ugny-le-Gay
02755,02,3.55750,49.49360,Urcel
02756,02,3.32030,49.78950,Urvillers
02757,02,3.57740,49.92480,Vadencourt
02758,02,3.51740,49.41240,Vailly-sur-Aisne
02759,02,3.79400,49.85720,La Vallée-au-Blé
02760,02,3.56100,50.02590,La Vallée-Mulâtre
02761,02,3.98280,49.41520,Variscourt
02762,02,3.15560,49.47450,Vassens
02763,02,3.49090,49.35740,Vasseny
02764,02,3.72900,49.42030,Vassogne
02765,02,3.55840,49.52150,Vaucelles-et-Beffecourt
02766,02,3.48720,49.47750,Vaudesson
02767,02,3.27470,49.42130,Vauxrezis
02768,02,3.40840,49.47670,Vauxaillon
02769,02,3.52480,50.00900,Vaux-Andigny
02770,02,3.29570,49.35770,Vauxbuin
02772,02,3.13800,49.82590,Vaux-en-Vermandois
02773,02,3.60310,49.34490,Vauxtin
02774,02,3.13900,49.90770,Vendelles
02775,02,3.34780,49.72360,Vendeuil
02776,02,3.20760,50.01240,Vendhuile
02777,02,3.44490,48.87480,Vendières
02778,02,3.66370,49.43140,Vendresse-Beaulne
02779,02,3.62870,49.98980,Vénérolles
02780,02,3.39500,49.36900,Venizel
02781,02,3.42310,49.07460,Verdilly
02782,02,3.17260,49.92570,Le Verguier
02783,02,3.58140,49.94460,Grand-Verly
02784,02,3.56460,49.96090,Petit-Verly
02785,02,3.15550,49.88400,Vermand
02786,02,3.31880,49.54460,Verneuil-sous-Coucy
02787,02,3.68060,49.64520,Verneuil-sur-Serre
02788,02,3.44350,49.65710,Versigny
02789,02,3.92260,49.83710,Vervins
02790,02,3.79210,49.67670,Vesles-et-Caumont
02791,02,3.73010,49.54020,Veslud
02792,02,3.21850,49.08140,Veuilly-la-Poterie
02793,02,3.22350,49.46660,Vézaponin
02794,02,3.68170,49.18770,Vézilly
02795,02,3.11080,49.41250,Vic-sur-Aisne
02796,02,3.29650,49.18210,Vichel-Nanteuil
02797,02,3.62430,49.37940,Viel-Arcy
02798,02,3.39700,48.90350,Viels-Maisons
02799,02,3.27620,49.28730,Vierzy
02800,02,3.46630,48.95550,Viffort
02801,02,3.99310,49.74240,Vigneux-Hocquet
02802,02,3.98820,49.66290,La Ville-aux-Bois-lès-Dizy
02803,02,3.85360,49.42780,La Ville-aux-Bois-lès-Pontavert
02804,02,3.32040,49.30040,Villemontoire
02805,02,3.35950,49.38090,Villeneuve-Saint-Germain
02806,02,3.47750,49.17100,Villeneuve-sur-Fère
02807,02,3.19910,49.66000,Villequier-Aumont
02808,02,3.18600,49.95010,Villeret
02809,02,3.71430,49.16090,Villers-Agron-Aiguizy
02810,02,3.10250,49.21970,Villers-Cotterêts
02812,02,3.26810,49.26490,Villers-Hélon
02813,02,3.50500,49.77010,Villers-le-Sec
02814,02,3.68270,49.92510,Villers-lès-Guise
02815,02,3.09200,49.77990,Villers-Saint-Christophe
02816,02,3.53020,49.16790,Villers-sur-Fère
02817,02,3.64030,49.29420,Ville-Savoye
02818,02,3.26210,48.99780,Villiers-Saint-Denis
02819,02,4.04670,49.71530,Vincy-Reuil-et-Magny
02820,02,3.24830,49.63550,Viry-Noureuil
02821,02,3.56340,49.62380,Vivaise
02822,02,3.08770,49.30930,Vivières
02823,02,3.79150,49.78790,Voharies
02824,02,3.65270,49.51820,Vorges
02826,02,3.83320,49.84080,Voulpaix
02827,02,3.74080,49.71290,Voyenne
02828,02,3.41890,49.41420,Vregny
02829,02,3.38720,49.42920,Vuillery
02830,02,3.60180,50.01770,Wassigny
02831,02,4.19900,49.91930,Watigny
02832,02,3.71920,49.88520,Wiège-Faty
02833,02,3.99720,49.94850,Wimy
02834,02,3.44510,49.52880,Wissignicourt
03001,03,3.45140,46.09620,Abrest
03002,03,3.14900,46.62380,Agonges
03003,03,2.71570,46.71820,Ainay-le-Château
03004,03,3.74000,46.24800,Andelaroche
03005,03,2.41020,46.36340,Archignat
03006,03,3.73880,46.14680,Arfeuilles
03007,03,2.66990,46.22730,Arpheuilles-Saint-Priest
03008,03,3.57140,46.05130,Arronnes
03009,03,3.16690,46.67740,Aubigny
03010,03,2.55780,46.46100,Audes
03011,03,3.31230,46.68730,Aurouër
03012,03,3.12020,46.54440,Autry-Issards
03013,03,3.31640,46.59610,Avermes
03014,03,3.97100,46.32840,Avrilly
03015,03,3.20710,46.64770,Bagneux
03016,03,3.24750,46.22240,Barberier
03017,03,3.69540,46.28090,Barrais-Bussolles
03018,03,3.27550,46.25850,Bayet
03019,03,3.67330,46.58680,Beaulon
03020,03,2.88890,46.27820,Beaune-d'Allier
03021,03,3.13910,46.12320,Bègues
03022,03,3.06930,46.20930,Bellenaves
03023,03,3.40250,46.12020,Bellerive-sur-Allier
03024,03,3.70430,46.32760,Bert
03025,03,3.37100,46.45070,Bessay-sur-Allier
03026,03,3.25230,46.48170,Besson
03027,03,2.84600,46.33320,Bézenet
03028,03,3.57580,46.20800,Billezois
03029,03,3.44140,46.23160,Billy
03030,03,3.29270,46.08110,Biozat
03031,03,2.73510,46.40220,Bizeneuille
03032,03,2.96440,46.29080,Blomard
03033,03,3.50490,46.18410,Bost
03034,03,3.49580,46.31780,Boucé
03035,03,3.90690,46.30500,Le Bouchaud
03036,03,3.04480,46.58290,Bourbon-l'Archambault
03037,03,2.66460,46.66190,Braize
03038,03,3.21680,46.33280,Bransat
03039,03,3.25580,46.43350,Bresnay
03040,03,3.28790,46.52960,Bressolles
03041,03,2.71360,46.58930,Le Brethon
03042,03,3.66640,46.17530,Le Breuil
03043,03,3.29320,46.19950,Broût-Vernet
03044,03,3.36340,46.07300,Brugheas
03045,03,3.51390,46.05800,Busset
03046,03,2.94500,46.47150,Buxières-les-Mines
03047,03,2.77420,46.22700,La Celle
03048,03,2.80850,46.62630,Cérilly
03049,03,3.19880,46.29870,Cesset
03050,03,3.75260,46.02680,La Chabanne
03051,03,2.42270,46.41450,Chambérat
03052,03,2.70980,46.32640,Chamblet
03053,03,3.15470,46.23980,Chantelle
03054,03,3.51270,46.49280,Chapeau
03055,03,2.51140,46.42800,La Chapelaude
03056,03,3.59030,46.08760,La Chapelle
03057,03,3.52940,46.66190,La Chapelle-aux-Chasses
03058,03,2.94260,46.38310,Chappes
03059,03,3.23280,46.26570,Chareil-Cintrat
03060,03,3.39350,46.15800,Charmeil
03061,03,3.24640,46.08280,Charmes
03062,03,3.16250,46.18170,Charroux
03063,03,3.97220,46.43850,Chassenard
03064,03,2.98410,46.78120,Château-sur-Allier
03065,03,3.29610,46.41970,Châtel-de-Neuvre
03066,03,3.71830,46.10210,Châtel-Montagne
03067,03,3.63260,46.39960,Châtelperron
03068,03,3.72250,46.20220,Châtelus
03069,03,3.12280,46.46430,Châtillon
03070,03,2.95390,46.42180,Chavenon
03071,03,3.59840,46.35400,Chavroches
03072,03,2.51470,46.48410,Chazemais
03073,03,3.30880,46.47650,Chemilly
03074,03,3.56360,46.60990,Chevagnes
03075,03,3.10970,46.21360,Chezelle
03076,03,3.45140,46.61580,Chézy
03077,03,3.03390,46.24990,Chirat-l'Église
03078,03,3.00180,46.12460,Chouvigny
03079,03,3.54690,46.32150,Cindré
03080,03,3.30020,46.11000,Cognat-Lyonne
03081,03,2.79370,46.26750,Colombier
03082,03,2.75090,46.27340,Commentry
03083,03,3.31450,46.34610,Contigny
03084,03,2.83170,46.48760,Cosne-d'Allier
03085,03,3.24120,46.55590,Coulandon
03086,03,3.86690,46.47890,Coulanges
03087,03,2.90410,46.67470,Couleuvre
03088,03,2.44890,46.46570,Courçais
03089,03,3.00410,46.20710,Coutansouze
03090,03,3.11920,46.64270,Couzon
03091,03,3.42280,46.26920,Créchy
03092,03,3.16660,46.44930,Cressanges
03093,03,3.46350,46.17850,Creuzier-le-Neuf
03094,03,3.43870,46.16320,Creuzier-le-Vieux
03095,03,3.47740,46.13420,Cusset
03096,03,3.14750,46.25170,Deneuille-lès-Chantelle
03097,03,2.76920,46.37990,Deneuille-les-Mines
03098,03,2.62530,46.35710,Désertines
03099,03,3.03850,46.37510,Deux-Chaises
03100,03,3.74260,46.52340,Diou
03101,03,2.54620,46.37060,Domérat
03102,03,3.67870,46.53360,Dompierre-sur-Besbre
03103,03,3.80030,46.34980,Le Donjon
03104,03,2.79500,46.34500,Doyet
03105,03,3.70850,46.22880,Droiturier
03106,03,2.69680,46.25360,Durdat-Larequille
03107,03,3.07400,46.11210,Ébreuil
03108,03,2.94730,46.19800,Échassières
03109,03,3.26750,46.14310,Escurolles
03110,03,3.33360,46.13130,Espinasse-Vozelle
03111,03,2.63050,46.42480,Estivareilles
03112,03,3.22100,46.22270,Étroussat
03113,03,3.65010,46.02050,Ferrières-sur-Sichon
03114,03,3.33500,46.39970,La Ferté-Hauterive
03115,03,3.16250,46.28970,Fleuriel
03116,03,3.19810,46.24520,Fourilles
03117,03,3.04110,46.64220,Franchesse
03118,03,3.17080,46.09910,Gannat
03119,03,3.59280,46.72170,Gannay-sur-Loire
03120,03,3.67120,46.63460,Garnat-sur-Engièvre
03121,03,3.40780,46.62730,Gennetines
03122,03,3.04960,46.50850,Gipcy
03124,03,3.43220,46.41030,Gouise
03125,03,3.64340,45.98170,La Guillermie
03126,03,3.43960,46.07820,Hauterive
03127,03,2.71340,46.52400,Hérisson
03128,03,2.48120,46.37570,Huriel
03129,03,2.82830,46.27150,Hyds
03130,03,2.77620,46.68660,Isle-et-Bardais
03131,03,3.62260,46.15880,Isserpent
03132,03,3.58560,46.37890,Jaligny-sur-Besbre
03133,03,3.20070,46.16030,Jenzat
03134,03,3.17860,46.34290,Laféline
03135,03,3.00100,46.16150,Lalizolle
03136,03,2.44100,46.30200,Lamaids
03137,03,3.46040,46.27660,Langy
03138,03,3.64530,46.26130,Lapalisse
03139,03,3.76800,45.99410,Laprugne
03140,03,2.60420,46.30930,Lavault-Sainte-Anne
03141,03,3.69080,45.96750,Lavoine
03142,03,3.82990,46.30560,Lenax
03143,03,2.59540,46.65820,Lételon
03144,03,3.76860,46.39580,Liernolles
03145,03,2.56590,46.28160,Lignerolles
03146,03,3.05410,46.68760,Limoise
03147,03,3.76300,46.29930,Loddes
03148,03,3.34200,46.26670,Loriges
03149,03,3.24610,46.30780,Louchy-Montfand
03150,03,2.83290,46.53580,Louroux-Bourbonnais
03151,03,2.85850,46.30120,Louroux-de-Beaune
03152,03,2.97270,46.22860,Louroux-de-Bouble
03154,03,3.94800,46.36650,Luneau
03155,03,2.91110,46.73710,Lurcy-Lévis
03156,03,3.47860,46.57310,Lusigny
03157,03,3.50970,46.21620,Magnet
03158,03,2.68950,46.47520,Haut-Bocage
03159,03,2.76560,46.30530,Malicorne
03160,03,3.39600,46.24010,Marcenat
03161,03,2.63320,46.17070,Marcillat-en-Combraille
03162,03,3.21220,46.57810,Marigny
03163,03,3.49350,46.02570,Mariol
03164,03,3.23990,46.16640,Le Mayet-d'École
03165,03,3.64910,46.06050,Le Mayet-de-Montagne
03166,03,3.18620,46.13510,Mazerier
03167,03,2.55580,46.22130,Mazirat
03168,03,2.64850,46.60650,Meaulne-Vitray
03169,03,3.22540,46.38920,Meillard
03170,03,3.10950,46.51720,Meillers
03171,03,3.52400,46.44930,Mercy
03172,03,2.36300,46.42400,Mesples
03173,03,3.92670,46.46130,Molinet
03174,03,3.55600,46.11210,Molles
03175,03,3.10350,46.26410,Monestier
03176,03,3.28820,46.38150,Monétay-sur-Allier
03177,03,3.82350,46.43370,Monétay-sur-Loire
03178,03,3.82900,46.26400,Montaiguët-en-Forez
03179,03,3.51910,46.29140,Montaigu-le-Blin
03180,03,3.48470,46.52660,Montbeugny
03181,03,3.72490,46.36260,Montcombroux-les-Mines
03182,03,3.25110,46.11470,Monteignet-sur-l'Andelot
03183,03,3.05320,46.40700,Le Montet
03184,03,3.23510,46.61120,Montilly
03185,03,2.60800,46.34280,Montluçon
03186,03,2.95610,46.31640,Montmarault
03187,03,3.45670,46.33800,Montoldre
03188,03,3.24060,46.28970,Montord
03189,03,2.82440,46.31730,Montvicq
03190,03,3.32550,46.55910,Moulins
03191,03,2.89930,46.41400,Murat
03192,03,2.97040,46.15230,Nades
03193,03,2.58920,46.49750,Nassigny
03194,03,3.11540,46.17660,Naves
03195,03,2.68090,46.30280,Néris-les-Bains
03196,03,3.88590,46.34370,Neuilly-en-Donjon
03197,03,3.43810,46.46420,Neuilly-le-Réal
03198,03,2.97900,46.74320,Neure
03200,03,3.27600,46.57090,Neuvy
03201,03,3.64260,46.10680,Nizerolles
03202,03,3.12610,46.47830,Noyant-d'Allier
03203,03,3.60130,46.65820,Paray-le-Frésil
03204,03,3.37040,46.29500,Paray-sous-Briailles
03205,03,3.56110,46.24550,Périgny
03206,03,2.56620,46.18930,La Petite-Marche
03207,03,3.80550,46.50130,Pierrefitte-sur-Loire
03208,03,3.88870,46.42190,Le Pin
03209,03,3.22710,46.07540,Poëzat
03210,03,3.01090,46.70480,Pouzy-Mésangy
03211,03,2.54760,46.30820,Prémilhat
03212,03,2.49030,46.30930,Quinssaines
03213,03,2.60990,46.45790,Reugny
03214,03,3.03140,46.44180,Rocles
03215,03,3.45100,46.29870,Rongères
03216,03,2.69930,46.20470,Ronnet
03217,03,2.69570,46.35580,Saint-Angel
03218,03,3.00630,46.53410,Saint-Aubin-le-Monial
03219,03,2.90690,46.31500,Saint-Bonnet-de-Four
03220,03,3.14100,46.14900,Saint-Bonnet-de-Rochefort
03221,03,2.69640,46.66890,Saint-Bonnet-Tronçais
03222,03,2.73590,46.54680,Saint-Caprais
03223,03,3.58380,46.16840,Saint-Christophe-en-Bourbonnais
03224,03,3.72600,46.05440,Saint-Clément
03225,03,2.45210,46.50570,Saint-Désiré
03226,03,3.87010,46.38460,Saint-Didier-en-Donjon
03227,03,3.33720,46.22970,Saint-Didier-la-Forêt
03228,03,2.36050,46.49840,Saint-Éloy-d'Allier
03229,03,3.40250,46.68210,Saint-Ennemond
03230,03,3.53840,46.16960,Saint-Étienne-de-Vicq
03231,03,2.62980,46.13290,Saint-Fargeol
03232,03,3.47920,46.22780,Saint-Félix
03233,03,2.60190,46.26360,Saint-Genest
03234,03,3.41280,46.38600,Saint-Gérand-de-Vaux
03235,03,3.51640,46.26100,Saint-Gérand-le-Puy
03236,03,3.43150,46.19550,Saint-Germain-des-Fossés
03237,03,3.22340,46.18810,Saint-Germain-de-Salles
03238,03,3.01830,46.48350,Saint-Hilaire
03239,03,3.93680,46.40930,Saint-Léger-sur-Vouzance
03240,03,3.68870,46.41170,Saint-Léon
03241,03,3.10630,46.69680,Saint-Léopardin-d'Augy
03242,03,3.38120,46.35590,Saint-Loup
03243,03,3.00440,46.32220,Saint-Marcel-en-Murat
03244,03,2.58120,46.15200,Saint-Marcel-en-Marcillat
03245,03,3.66160,46.67980,Saint-Martin-des-Lais
03246,03,2.44200,46.33280,Saint-Martinien
03247,03,3.14770,46.58290,Saint-Menoux
03248,03,3.79090,46.05690,Saint-Nicolas-des-Biefs
03249,03,2.30780,46.44150,Saint-Palais
03250,03,3.77180,46.19170,Saint-Pierre-Laval
03251,03,2.95510,46.62890,Saint-Plaisir
03252,03,3.29350,46.15520,Saint-Pont
03253,03,3.65380,46.48550,Saint-Pourçain-sur-Besbre
03254,03,3.30280,46.30470,Saint-Pourçain-sur-Sioule
03255,03,3.14920,46.07820,Saint-Priest-d'Andelot
03256,03,2.90580,46.35770,Saint-Priest-en-Murat
03257,03,3.65020,46.22560,Saint-Prix
03258,03,3.37700,46.19150,Saint-Rémy-en-Rollat
03259,03,2.33370,46.39550,Saint-Sauvier
03260,03,3.00830,46.41290,Saint-Sornin
03261,03,2.57520,46.24290,Sainte-Thérence
03262,03,2.60860,46.38910,Saint-Victor
03263,03,3.50610,46.41140,Saint-Voir
03264,03,3.46720,46.06150,Saint-Yorre
03265,03,3.75870,46.46430,Saligny-sur-Roudon
03266,03,3.46630,46.25010,Sanssat
03267,03,3.26600,46.32840,Saulcet
03268,03,3.22030,46.13790,Saulzet
03269,03,2.79870,46.43210,Sauvagny
03270,03,2.97190,46.34710,Sazeret
03271,03,3.35090,46.10280,Serbannes
03272,03,3.58640,46.27760,Servilly
03273,03,3.46830,46.20500,Seuillet
03274,03,3.66000,46.36160,Sorbier
03275,03,3.19460,46.52200,Souvigny
03276,03,3.05570,46.15270,Sussat
03277,03,3.05030,46.28200,Target
03278,03,3.14610,46.20780,Taxat-Senat
03279,03,2.51860,46.26440,Teillet-Argenty
03280,03,2.61910,46.21520,Terjat
03281,03,3.12370,46.35380,Le Theil
03282,03,2.88070,46.59440,Theneuille
03283,03,3.57210,46.52900,Thiel-sur-Acolin
03284,03,3.57750,46.41520,Thionne
03285,03,2.87440,46.44270,Tortezais
03286,03,3.38190,46.50940,Toulon-sur-Allier
03287,03,3.16520,46.39460,Treban
03288,03,2.34580,46.34690,Treignat
03289,03,3.52210,46.36540,Treteau
03290,03,3.31440,46.63630,Trévol
03291,03,3.59880,46.31930,Trézelles
03292,03,3.08650,46.42320,Tronget
03293,03,2.61200,46.63610,Urçay
03294,03,3.19000,46.21040,Ussel-d'Allier
03295,03,3.07850,46.17460,Valignat
03296,03,2.82140,46.71530,Valigny
03297,03,2.60120,46.54670,Vallon-en-Sully
03298,03,3.39630,46.31400,Varennes-sur-Allier
03299,03,3.63830,46.31650,Varennes-sur-Tèche
03300,03,3.63240,46.44820,Vaumas
03301,03,2.56790,46.42170,Vaux
03302,03,3.05540,46.16990,Veauce
03303,03,2.76490,46.46960,Venas
03304,03,3.34700,46.15990,Vendat
03305,03,2.67590,46.40830,Verneix
03306,03,3.47650,46.10640,Le Vernet
03307,03,3.24970,46.35440,Verneuil-en-Bourbonnais
03308,03,2.97740,46.26120,Vernusse
03309,03,3.03910,46.74250,Le Veurdre
03310,03,3.42540,46.13180,Vichy
03311,03,3.09330,46.14520,Vicq
03312,03,2.87490,46.49940,Vieure
03313,03,2.79510,46.56090,Le Vilhain
03314,03,2.63000,46.27380,Villebret
03315,03,2.84010,46.39700,Villefranche-d'Allier
03316,03,3.24860,46.67530,Villeneuve-sur-Allier
03317,03,2.36800,46.46080,Viplaix
03319,03,3.07690,46.32680,Voussac
03320,03,2.93820,46.54710,Ygrande
03321,03,3.38540,46.56620,Yzeure
04001,04,6.14130,44.06320,Aiglun
04004,04,6.02570,43.79210,Allemagne-en-Provence
04005,04,6.59290,43.97690,Allons
04006,04,6.63040,44.26900,Allos
04007,04,6.55310,43.94420,Angles
04008,04,6.66310,43.96310,Annot
04009,04,6.33090,44.11500,Archail
04012,04,5.67570,43.93590,Aubenas-les-Alpes
04013,04,5.95420,44.12110,Aubignosc
04016,04,6.14420,44.24750,Authon
04017,04,6.31690,44.30410,Auzet
04018,04,5.64960,44.02440,Banon
04019,04,6.64630,44.37510,Barcelonnette
04020,04,6.25320,44.28150,Barles
04021,04,6.09870,44.09490,Barras
04022,04,6.38600,43.94670,Barrême
04023,04,6.18320,44.32330,Bayons
04024,04,6.37140,44.21440,Beaujeu
04025,04,6.60510,44.14540,Beauvezer
04026,04,6.19470,44.40740,Bellaffaire
04027,04,5.87720,44.17530,Bevons
04028,04,6.24220,43.98020,Beynes
04030,04,6.36710,43.87720,Blieux
04031,04,6.12780,43.92840,Bras-d'Asse
04032,04,6.69820,43.99020,Braux
04033,04,6.31900,44.44470,Ubaye-Serre-Ponçon
04034,04,5.88220,43.93000,La Brillanne
04035,04,6.02560,43.88540,Brunet
04036,04,6.30360,44.17250,Le Brusquet
04037,04,6.07060,44.37760,Le Caire
04039,04,6.48710,43.84850,Castellane
04040,04,6.13500,44.19950,Le Castellard-Mélan
04041,04,5.97980,43.92180,Le Castellet
04042,04,6.74360,44.04420,Castellet-lès-Sausses
04043,04,6.77450,43.90360,Val-de-Chalvagne
04045,04,5.58830,43.85300,Céreste-en-Luberon
04046,04,6.14590,44.02500,Le Chaffaut-Saint-Jurson
04047,04,6.14500,44.09770,Champtercier
04049,04,5.99420,44.08010,Château-Arnoux-Saint-Auban
04050,04,6.02630,44.27620,Châteaufort
04051,04,5.71420,44.15210,Châteauneuf-Miravail
04053,04,5.92890,44.09510,Châteauneuf-Val-Saint-Donat
04054,04,6.22390,44.02640,Châteauredon
04055,04,6.32080,43.98840,Chaudon-Norante
04057,04,6.07840,44.33010,Clamensane
04058,04,5.96620,44.37280,Claret
04059,04,6.37830,44.02200,Clumanc
04061,04,6.65850,44.16020,Colmars
04062,04,6.70540,44.46780,La Condamine-Châtelard
04063,04,5.74810,43.75930,Corbières-en-Provence
04065,04,5.83970,44.08450,Cruis
04066,04,6.01890,44.41320,Curbans
04067,04,5.67170,44.17650,Curel
04068,04,5.77650,43.89470,Dauphin
04069,04,6.57680,43.86850,Demandolx
04070,04,6.24950,44.09540,Digne-les-Bains
04072,04,6.37500,44.13310,Draix
04073,04,6.71290,44.36840,Enchastrayes
04074,04,6.27320,44.03980,Entrages
04075,04,6.02540,44.19500,Entrepierres
04076,04,6.80670,43.95220,Entrevaux
04077,04,6.03660,43.93930,Entrevennes
04079,04,6.03630,44.07770,L'Escale
04081,04,5.99480,43.74000,Esparron-de-Verdon
04084,04,6.20040,43.94870,Estoublon
04085,04,6.09980,44.39520,Faucon-du-Caire
04086,04,6.68400,44.41370,Faucon-de-Barcelonnette
04087,04,5.78970,44.00760,Fontienne
04088,04,5.78420,43.95820,Forcalquier
04090,04,6.66270,44.01830,Le Fugeret
04091,04,5.91130,44.00260,Ganagobie
04092,04,6.56620,43.82560,La Garde
04093,04,6.14220,44.42430,Gigors
04094,04,5.85970,43.76280,Gréoux-les-Bains
04095,04,5.70780,44.10680,L'Hospitalet
04096,04,6.77450,44.37950,Jausiers
04097,04,6.31830,44.19700,La Javie
04099,04,6.45380,44.04840,Lambruisse
04101,04,5.72280,44.08460,Lardiers
04102,04,6.40520,44.42550,Le Lauzet-Ubaye
04104,04,5.71880,43.98600,Limans
04106,04,5.87800,43.96740,Lurs
04107,04,6.27730,43.89370,Majastres
04108,04,6.05200,44.03920,Malijai
04109,04,5.89980,44.07660,Mallefougasse-Augès
04110,04,6.12010,44.04320,Mallemoisson
04111,04,5.74190,43.94260,Mane
04112,04,5.78960,43.82930,Manosque
04113,04,6.28180,44.12870,Marcoux
04115,04,6.64750,44.04320,Méailles
04116,04,5.96790,43.99560,Les Mées
04118,04,5.98950,44.35460,Melve
04120,04,6.85590,44.43000,Val d'Oronaye
04121,04,6.17990,43.99790,Mézel
04122,04,6.08260,44.06080,Mirabeau
04123,04,5.86760,44.26290,Mison
04124,04,6.09440,43.76310,Montagnac-Montpezat
04126,04,6.34280,44.40040,Montclar
04127,04,5.95050,44.05510,Montfort
04128,04,5.69010,43.82890,Montfuron
04129,04,5.65840,43.84360,Montjustin
04130,04,5.84430,44.04050,Montlaux
04132,04,5.58960,44.02320,Montsalier
04133,04,6.46200,43.96300,Moriez
04134,04,6.04060,44.34120,La Motte-du-Caire
04135,04,6.22890,43.83700,Moustiers-Sainte-Marie
04136,04,6.52950,44.01860,La Mure-Argens
04137,04,6.00950,44.28820,Nibles
04138,04,5.84450,43.93300,Niozelles
04139,04,5.80780,44.16440,Noyers-sur-Jabron
04140,04,5.59330,44.15130,Les Omergues
04141,04,5.72490,44.03900,Ongles
04142,04,5.59060,43.93040,Oppedette
04143,04,5.92320,43.91160,Oraison
04144,04,6.32300,43.80100,La Palud-sur-Verdon
04145,04,5.94470,44.14070,Peipin
04148,04,6.64950,43.81680,Peyroules
04149,04,5.93060,44.03510,Peyruis
04150,04,6.13210,44.45460,Piégut
04151,04,5.83940,43.96450,Pierrerue
04152,04,5.72500,43.80800,Pierrevert
04154,04,6.37040,44.49840,Pontis
04155,04,6.45980,44.21350,Prads-Haute-Bléone
04156,04,6.02450,43.98030,Puimichel
04157,04,6.12160,43.86870,Puimoisson
04158,04,6.02360,43.70480,Quinson
04159,04,5.61110,44.09820,Redortiers
04160,04,5.65650,43.88840,Reillanne
04161,04,6.49880,44.36880,Méolans-Revel
04162,04,5.67420,43.98050,Revest-des-Brousses
04163,04,5.54390,44.10240,Revest-du-Bion
04164,04,5.82580,44.02280,Revest-Saint-Martin
04166,04,6.08490,43.83580,Riez
04167,04,6.23280,44.18830,La Robine-sur-Galabre
04169,04,5.66540,44.10610,La Rochegiron
04170,04,6.87500,43.90970,La Rochette
04171,04,6.39510,43.78660,Rougon
04172,04,6.15260,43.81960,Roumoules
04173,04,6.50430,43.97110,Saint-André-les-Alpes
04174,04,6.72820,43.96000,Saint-Benoît
04175,04,5.61520,43.90540,Sainte-Croix-à-Lauze
04176,04,6.15020,43.76200,Sainte-Croix-du-Verdon
04177,04,6.17190,44.19690,Hautes-Duyes
04178,04,5.77980,44.06480,Saint-Étienne-les-Orgues
04179,04,6.05260,44.23680,Saint-Geniez
04180,04,6.36900,43.97590,Saint-Jacques
04181,04,6.11190,43.97780,Saint-Jeannet
04182,04,6.07100,43.93860,Saint-Julien-d'Asse
04183,04,6.54720,43.91220,Saint-Julien-du-Verdon
04184,04,6.19870,43.89720,Saint-Jurs
04186,04,6.07020,43.72100,Saint-Laurent-du-Verdon
04187,04,6.40450,43.97800,Saint-Lions
04188,04,5.79880,43.89810,Saint-Maime
04189,04,5.96220,43.78200,Saint-Martin-de-Brômes
04190,04,5.74290,43.86930,Saint-Martin-les-Eaux
04191,04,6.25270,44.38580,Saint-Martin-lès-Seyne
04192,04,5.72760,43.91350,Saint-Michel-l'Observatoire
04193,04,6.81880,44.56470,Saint-Paul-sur-Ubaye
04194,04,6.92200,43.91140,Saint-Pierre
04195,04,6.61630,44.41600,Saint-Pons
04197,04,5.76620,43.78220,Sainte-Tulle
04199,04,5.74250,44.16740,Saint-Vincent-sur-Jabron
04200,04,5.98890,44.15460,Salignac
04201,04,5.68080,44.08290,Saumane
04202,04,6.78610,44.01300,Sausses
04203,04,6.29900,44.37130,Selonnet
04204,04,6.36450,43.92290,Senez
04205,04,6.38020,44.34350,Seyne
04206,04,5.85050,44.00870,Sigonce
04207,04,5.96480,44.32310,Sigoyer
04208,04,5.56590,44.00470,Simiane-la-Rotonde
04209,04,5.92760,44.19930,Sisteron
04210,04,6.65210,43.86110,Soleilhas
04211,04,6.04330,44.15820,Sourribes
04214,04,6.37980,44.08030,Tartonne
04216,04,5.92480,44.33030,Thèze
04217,04,6.12580,44.14950,Thoard
04218,04,6.48540,44.10190,Thorame-Basse
04219,04,6.61520,44.08300,Thorame-Haute
04220,04,6.55840,44.39170,Les Thuiles
04222,04,6.15960,44.39340,Turriers
04224,04,6.68620,43.90920,Ubraye
04226,04,6.67080,44.32020,Uvernet-Fours
04227,04,5.63970,43.94890,Vachères
04228,04,6.07870,44.27930,Valavoire
04229,04,5.87530,44.13980,Valbelle
04230,04,5.93920,43.83860,Valensole
04231,04,5.97770,44.25610,Valernes
04233,04,5.95890,44.28900,Vaumeilh
04234,04,6.08690,44.43990,Venterol
04235,04,6.34320,44.27180,Verdaches
04236,04,6.60200,43.91580,Vergons
04237,04,6.41530,44.27620,Le Vernet
04240,04,6.57130,44.19520,Villars-Colmars
04241,04,5.70650,43.86270,Villemus
04242,04,5.85090,43.88480,Villeneuve
04244,04,6.03330,44.12320,Volonne
04245,04,5.82520,43.86770,Volx
05001,05,6.97170,44.77170,Abriès-Ristolas
05003,05,6.87680,44.78260,Aiguilles
05004,05,6.22880,44.61950,Ancelle
05006,05,6.47160,44.78350,L'Argentière-la-Bessée
05007,05,6.71810,44.76230,Arvieux
05008,05,5.71540,44.49340,Aspremont
05009,05,6.00300,44.81450,Aspres-lès-Corps
05010,05,5.76950,44.55650,Aspres-sur-Buëch
05011,05,6.19100,44.53590,Avançon
05012,05,6.50400,44.50510,Baratier
05013,05,5.89730,44.43330,Barcillonnette
05014,05,5.72440,44.25910,Barret-sur-Méouge
05016,05,5.74830,44.45650,La Bâtie-Montsaléon
05017,05,6.21510,44.58170,La Bâtie-Neuve
05018,05,6.15230,44.55190,La Bâtie-Vieille
05019,05,5.65180,44.54770,La Beaume
05021,05,5.75370,44.40780,Le Bersac
05022,05,6.21840,44.41630,Bréziers
05023,05,6.65360,44.89950,Briançon
05024,05,5.53090,44.46270,Valdoule
05025,05,6.14570,44.65870,Buissard
05026,05,6.80720,44.65440,Ceillac
05027,05,6.77460,44.85860,Cervières
05028,05,5.78320,44.47930,Chabestan
05029,05,6.16630,44.64850,Chabottes
05031,05,6.52360,44.72470,Champcella
05032,05,6.27410,44.74160,Champoléon
05033,05,5.65920,44.36480,Chanousse
05035,05,5.90280,44.50300,Châteauneuf-d'Oze
05036,05,6.48340,44.64240,Châteauroux-les-Alpes
05037,05,6.05270,44.48380,Châteauvieux
05038,05,6.81100,44.76170,Château-Ville-Vieille
05039,05,6.03110,44.73900,Aubessagne
05040,05,6.28700,44.54730,Chorges
05044,05,6.61910,44.53020,Crévoux
05045,05,6.45710,44.49850,Crots
05046,05,6.47500,44.58060,Embrun
05047,05,5.73490,44.21130,Éourres
05048,05,5.60950,44.43190,L'Épine
05049,05,5.88750,44.45970,Esparron
05050,05,6.23710,44.49020,Espinasses
05051,05,5.64260,44.32170,Étoile-Saint-Cyrice
05052,05,6.66210,44.69620,Eygliers
05053,05,5.78650,44.36020,Garde-Colombe
05054,05,6.06000,44.66660,La Fare-en-Champsaur
05055,05,5.73780,44.57510,La Faurie
05056,05,6.14330,44.63160,Forest-Saint-Julien
05057,05,5.99920,44.45000,Fouillouse
05058,05,6.45950,44.72830,Freissinières
05059,05,6.00540,44.53610,La Freissinouse
05060,05,5.87510,44.53790,Furmeyer
05061,05,6.06160,44.57970,Gap
05062,05,5.97660,44.74830,Le Glaizil
05063,05,6.28860,45.06100,La Grave
05064,05,6.24400,44.80690,La Chapelle-en-Valgaudémar
05065,05,6.69830,44.65960,Guillestre
05066,05,5.62990,44.57070,La Haute-Beaume
05068,05,6.11320,44.50380,Jarjayes
05070,05,5.81970,44.33720,Laragne-Montéglin
05071,05,5.97210,44.43720,Lardier-et-Valença
05072,05,6.06920,44.64450,Laye
05073,05,5.85100,44.34880,Lazer
05074,05,6.07120,44.48330,Lettret
05075,05,5.95530,44.53170,Manteyer
05076,05,5.71330,44.38500,Méreuil
05077,05,6.89750,44.71230,Molines-en-Queyras
05078,05,5.93170,44.39170,Monêtier-Allemont
05079,05,6.47090,44.99920,Le Monêtier-les-Bains
05080,05,5.66990,44.59520,Montbrand
05081,05,5.66730,44.41190,Montclus
05082,05,6.62500,44.66850,Mont-Dauphin
05084,05,6.23450,44.54190,Montgardin
05085,05,6.72160,44.94030,Montgenèvre
05086,05,5.61940,44.36680,Montjay
05087,05,5.87070,44.57740,Montmaur
05089,05,5.74530,44.38780,Montrond
05090,05,6.12110,44.74000,La Motte-en-Champsaur
05091,05,5.50830,44.40840,Moydans
05092,05,6.02380,44.49900,Neffes
05093,05,6.61600,45.04870,Névache
05094,05,5.75540,44.31030,Nossage-et-Bénévent
05095,05,5.99950,44.70020,Le Noyer
05096,05,6.35320,44.68490,Orcières
05097,05,5.70710,44.31600,Orpierre
05098,05,6.57740,44.48830,Les Orres
05099,05,5.79800,44.50570,Oze
05100,05,5.99770,44.50520,Pelleautier
05101,05,6.43330,44.86460,Vallouise-Pelvoux
05102,05,5.64580,44.48090,La Piarre
05103,05,5.90080,44.27560,Le Poët
05104,05,6.03350,44.68580,Poligny
05106,05,6.34130,44.54560,Prunières
05107,05,6.56370,44.88680,Puy-Saint-André
05108,05,6.41290,44.56670,Puy-Saint-Eusèbe
05109,05,6.60470,44.89740,Puy-Saint-Pierre
05110,05,6.46170,44.81580,Puy-Saint-Vincent
05111,05,6.43890,44.55960,Puy-Sanières
05112,05,6.00670,44.60650,Rabou
05113,05,6.12920,44.54960,Rambaud
05114,05,6.36220,44.61630,Réallon
05115,05,6.15670,44.47390,Remollon
05116,05,6.54680,44.67880,Réotier
05117,05,5.55520,44.41230,Ribeyret
05118,05,5.83380,44.25160,Val Buëch-Méouge
05119,05,6.62420,44.62020,Risoul
05121,05,6.19620,44.45060,Rochebrune
05122,05,6.62150,44.75570,La Roche-de-Rame
05123,05,5.95960,44.59000,La Roche-des-Arnauds
05124,05,6.14730,44.59450,La Rochette
05126,05,5.45810,44.40050,Rosans
05127,05,6.26840,44.48560,Rousset-Serre-Ponçon
05128,05,6.57920,44.59550,Saint-André-d'Embrun
05129,05,5.51680,44.36580,Saint-André-de-Rosans
05130,05,6.35590,44.55830,Saint-Apollinaire
05131,05,5.84580,44.48740,Saint-Auban-d'Oze
05132,05,6.09880,44.69200,Saint-Bonnet-en-Champsaur
05133,05,6.59890,44.93730,Saint-Chaffrey
05134,05,6.55400,44.65230,Saint-Clément-sur-Durance
05135,05,5.67500,44.28870,Sainte-Colombe
05136,05,6.62910,44.72590,Saint-Crépin
05139,05,5.89170,44.68470,Dévoluy
05140,05,6.16160,44.50750,Saint-Étienne-le-Laus
05142,05,6.02040,44.79620,Saint-Firmin
05144,05,6.06490,44.77730,Saint-Jacques-en-Valgodemard
05145,05,6.23010,44.67570,Saint-Jean-Saint-Nicolas
05146,05,5.72140,44.62050,Saint-Julien-en-Beauchêne
05147,05,6.12890,44.67260,Saint-Julien-en-Champsaur
05148,05,6.11170,44.63710,Saint-Laurent-du-Cros
05149,05,6.21440,44.64760,Saint-Léger-les-Mélèzes
05151,05,6.58430,44.83820,Saint-Martin-de-Queyrières
05152,05,6.11590,44.80340,Saint-Maurice-en-Valgodemard
05153,05,6.16830,44.68920,Saint-Michel-de-Chaillol
05154,05,5.68680,44.52040,Saint-Pierre-d'Argençon
05155,05,5.76720,44.24880,Saint-Pierre-Avez
05156,05,6.53210,44.53120,Saint-Sauveur
05157,05,6.89240,44.68430,Saint-Véran
05158,05,5.84020,44.46550,Le Saix
05159,05,5.77690,44.32120,Saléon
05160,05,5.70410,44.24590,Salérans
05161,05,6.56640,44.95710,La Salle-les-Alpes
05162,05,6.01080,44.43180,La Saulce
05163,05,6.32090,44.48690,Le Sauze-du-Lac
05164,05,6.39500,44.53000,Savines-le-Lac
05165,05,5.79650,44.42340,Savournon
05166,05,5.71420,44.42240,Serres
05167,05,5.68080,44.46010,Sigottier
05168,05,5.97160,44.48010,Sigoyer
05169,05,5.57000,44.36150,Sorbiers
05170,05,6.04850,44.45990,Tallard
05171,05,6.19510,44.48630,Théus
05172,05,5.72490,44.35220,Trescléoux
05173,05,5.88690,44.32080,Upaix
05174,05,6.65700,44.93990,Val-des-Prés
05176,05,6.13540,44.49210,Valserres
05177,05,6.72110,44.59070,Vars
05178,05,5.88900,44.38190,Ventavon
05179,05,5.82270,44.55990,Veynes
05180,05,6.53050,44.82460,Les Vigneaux
05181,05,6.36420,45.00310,Villar-d'Arêne
05182,05,6.13350,44.83640,Villar-Loubière
05183,05,6.64830,44.83780,Villar-Saint-Pancrace
05184,05,5.94850,44.42960,Vitrolles
06001,06,6.93480,43.85520,Aiglun
06002,06,6.81080,43.89730,Amirat
06003,06,6.82110,43.77550,Andon
06004,06,7.10480,43.58230,Antibes
06005,06,7.01590,43.91710,Ascros
06006,06,7.24230,43.77720,Aspremont
06007,06,6.91180,43.61050,Auribeau-sur-Siagne
06008,06,6.91330,44.00620,Auvare
06009,06,7.11740,43.98560,Bairols
06010,06,6.96740,43.69930,Le Bar-sur-Loup
06011,06,7.33240,43.70810,Beaulieu-sur-Mer
06012,06,7.42270,43.74710,Beausoleil
06013,06,7.36120,44.06150,Belvédère
06014,06,7.28410,43.83090,Bendejun
06015,06,7.33060,43.83420,Berre-les-Alpes
06016,06,6.96930,44.11760,Beuil
06017,06,7.09080,43.80260,Bézaudun-les-Alpes
06018,06,7.08210,43.62730,Biot
06019,06,7.35700,43.79380,Blausasc
06020,06,7.37490,43.99450,La Bollène-Vésubie
06021,06,7.17860,43.86130,Bonson
06022,06,7.12500,43.82720,Bouyon
06023,06,7.49960,43.93790,Breil-sur-Roya
06024,06,6.73250,43.86540,Briançonnet
06025,06,7.16210,43.81460,Le Broc
06026,06,6.87820,43.66020,Cabris
06027,06,7.15020,43.67120,Cagnes-sur-Mer
06028,06,6.75440,43.76860,Caille
06029,06,7.01520,43.54540,Cannes
06030,06,7.00100,43.57450,Le Cannet
06031,06,7.31470,43.76940,Cantaron
06032,06,7.40080,43.72560,Cap-d'Ail
06033,06,7.17980,43.78500,Carros
06034,06,7.22980,43.79000,Castagniers
06035,06,7.49890,43.82270,Castellar
06036,06,7.46270,43.83710,Castillon
06037,06,6.90710,43.73870,Caussols
06038,06,6.97920,43.66260,Châteauneuf-Grasse
06039,06,7.29510,43.80070,Châteauneuf-Villevieille
06040,06,6.84050,44.15840,Châteauneuf-d'Entraunes
06041,06,6.92290,43.76650,Cipières
06042,06,7.18270,44.00300,Clans
06043,06,7.30140,43.86930,Coaraze
06044,06,7.09750,43.68690,La Colle-sur-Loup
06045,06,6.86420,43.89340,Collongues
06046,06,7.22120,43.75700,Colomars
06047,06,7.03950,43.83950,Conségudes
06048,06,7.32630,43.81330,Contes
06049,06,7.01960,43.75140,Courmes
06050,06,7.03840,43.78980,Coursegoules
06051,06,6.87100,44.00320,La Croix-sur-Roudoule
06052,06,6.99550,43.88900,Cuébris
06053,06,6.80450,44.04260,Daluis
06054,06,7.33950,43.75870,Drap
06055,06,7.27960,43.89540,Duranus
06056,06,6.76300,44.22150,Entraunes
06057,06,7.36650,43.83030,L'Escarène
06058,06,6.77580,43.72360,Escragnolles
06059,06,7.35660,43.72990,Èze
06060,06,7.26600,43.75330,Falicon
06061,06,7.09660,43.84240,Les Ferres
06062,06,7.55270,44.02130,Fontan
06063,06,6.82020,43.86120,Gars
06064,06,7.16750,43.76900,Gattières
06065,06,7.16050,43.71770,La Gaude
06066,06,7.16020,43.84360,Gilette
06067,06,7.44760,43.78700,Gorbio
06068,06,6.96220,43.72660,Gourdon
06069,06,6.93700,43.65600,Grasse
06070,06,6.92960,43.80370,Gréolières
06071,06,6.86730,44.10070,Guillaumes
06072,06,7.09010,44.03190,Ilonse
06073,06,7.08350,44.19030,Isola
06074,06,7.31210,43.97870,Lantosque
06075,06,7.23580,43.85010,Levens
06076,06,7.03610,44.00010,Lieuche
06077,06,7.35060,43.89970,Lucéram
06078,06,7.13890,43.91460,Malaussène
06079,06,6.91800,43.53340,Mandelieu-la-Napoule
06080,06,7.16680,44.03190,Marie
06081,06,6.85720,43.83880,Le Mas
06082,06,7.13050,43.95520,Massoins
06083,06,7.49800,43.79610,Menton
06084,06,6.96770,43.61920,Mouans-Sartoux
06085,06,7.00460,43.59310,Mougins
06086,06,7.41280,43.95030,Moulinet
06087,06,6.86490,43.87280,Les Mujouls
06088,06,7.25280,43.70320,Nice
06089,06,7.00940,43.65740,Opio
06090,06,6.92130,43.58860,Pégomas
06091,06,7.40880,43.80430,Peille
06092,06,7.36680,43.77270,Peillon
06093,06,6.93610,43.92020,La Penne
06094,06,6.92500,44.13330,Péone
06095,06,6.88070,43.62890,Peymeinade
06096,06,7.01770,44.03500,Pierlas
06097,06,7.07430,43.88830,Pierrefeu
06098,06,6.93330,44.00560,Puget-Rostang
06099,06,6.90490,43.94980,Puget-Théniers
06100,06,7.16930,43.88230,Revest-les-Roches
06101,06,6.97600,43.99420,Rigaud
06102,06,7.14490,44.09970,Rimplas
06103,06,7.28850,44.02820,Roquebillière
06104,06,7.45760,43.76380,Roquebrune-Cap-Martin
06105,06,7.05650,43.67230,Roquefort-les-Pins
06106,06,7.02320,43.86960,Roquestéron
06107,06,6.99160,43.84940,La Roque-en-Provence
06108,06,6.94750,43.58530,La Roquette-sur-Siagne
06109,06,7.20720,43.83280,La Roquette-sur-Var
06110,06,7.02330,44.11210,Roubion
06111,06,7.06030,44.11390,Roure
06112,06,7.00810,43.68030,Le Rouret
06113,06,7.46050,43.80460,Sainte-Agnès
06114,06,7.28750,43.74550,Saint-André-de-la-Roche
06115,06,6.97390,43.90850,Saint-Antonin
06116,06,6.73670,43.83190,Saint-Auban
06117,06,7.22830,43.81320,Saint-Blaise
06118,06,6.80490,43.65920,Saint-Cézaire-sur-Siagne
06119,06,6.84520,44.28100,Saint-Dalmas-le-Selvage
06120,06,6.92520,44.25970,Saint-Étienne-de-Tinée
06121,06,7.33490,43.68830,Saint-Jean-Cap-Ferrat
06122,06,7.14770,43.76190,Saint-Jeannet
06123,06,7.18220,43.68650,Saint-Laurent-du-Var
06124,06,6.81890,44.00140,Saint-Léger
06125,06,6.74920,44.14530,Saint-Martin-d'Entraunes
06126,06,7.20120,43.81680,Saint-Martin-du-Var
06127,06,7.30700,44.09440,Saint-Martin-Vésubie
06128,06,7.11960,43.69280,Saint-Paul-de-Vence
06129,06,7.12260,44.11630,Saint-Sauveur-sur-Tinée
06130,06,6.85160,43.69940,Saint-Vallier-de-Thiey
06131,06,6.91170,43.88050,Sallagriffon
06132,06,7.54030,43.99350,Saorge
06133,06,6.79870,44.08620,Sauze
06134,06,6.68920,43.76550,Séranon
06135,06,6.96520,43.87420,Sigale
06136,06,7.44930,43.88720,Sospel
06137,06,6.85730,43.65200,Spéracèdes
06138,06,6.93030,43.49900,Théoule-sur-Mer
06139,06,7.03650,43.97590,Thiéry
06140,06,6.85380,43.62570,Le Tignet
06141,06,7.10940,43.88570,Toudon
06142,06,7.37990,43.85160,Touët-de-l'Escarène
06143,06,7.00910,43.94330,Touët-sur-Var
06144,06,7.19600,43.96450,La Tour
06145,06,7.13650,43.88120,Tourette-du-Château
06146,06,7.15960,43.94200,Tournefort
06147,06,7.27500,43.78820,Tourrette-Levens
06148,06,7.03530,43.71800,Tourrettes-sur-Loup
06149,06,7.34130,43.74150,La Trinité
06150,06,7.39730,43.74620,La Turbie
06151,06,7.24580,43.93920,Utelle
06152,06,7.02910,43.62670,Valbonne
06153,06,7.19490,44.11520,Valdeblore
06154,06,6.70380,43.79430,Valderoure
06155,06,7.06040,43.57870,Vallauris
06156,06,7.23860,44.04120,Venanson
06157,06,7.09950,43.73730,Vence
06158,06,7.07600,43.95640,Villars-sur-Var
06159,06,7.32430,43.70810,Villefranche-sur-Mer
06160,06,6.77400,44.13010,Villeneuve-d'Entraunes
06161,06,7.09840,43.64700,Villeneuve-Loubet
06162,06,7.64960,44.08970,La Brigue
06163,06,7.54990,44.09710,Tende
07001,07,4.39440,44.89160,Accons
07002,07,4.33640,44.59920,Ailhon
07003,07,4.33350,44.71900,Aizac
07004,07,4.48720,44.75410,Ajoux
07005,07,4.59580,44.55930,Alba-la-Romaine
07006,07,4.41830,44.81680,Albon-d'Ardèche
07007,07,4.74490,44.93950,Alboussière
07008,07,4.61390,44.70890,Alissas
07009,07,4.79720,45.23160,Andance
07010,07,4.64190,45.24490,Annonay
07011,07,4.34630,44.73020,Vallées-d'Antraigues-Asperjoc
07012,07,4.31840,44.89630,Arcens
07013,07,4.74720,45.18930,Ardoix
07014,07,4.62800,45.03810,Arlebosc
07015,07,4.80690,45.14300,Arras-sur-Rhône
07017,07,4.18820,44.42430,Les Assions
07018,07,4.02110,44.68410,Astet
07019,07,4.39420,44.61070,Aubenas
07020,07,4.63090,44.58540,Aubignas
07022,07,4.74740,44.70460,Baix
07023,07,4.37370,44.51230,Balazuc
07024,07,4.14630,44.35980,Banne
07025,07,4.15890,44.66980,Barnas
07026,07,4.13460,44.85420,Le Béage
07027,07,4.79380,44.83240,Beauchastel
07028,07,4.25530,44.35750,Beaulieu
07029,07,4.17090,44.54370,Beaumont
07030,07,4.51560,44.86690,Beauvène
07031,07,4.20560,44.37910,Berrias-et-Casteljau
07032,07,4.57170,44.65140,Berzème
07033,07,4.29870,44.34230,Bessas
07034,07,4.54230,44.35830,Bidon
07035,07,4.68910,44.91960,Boffres
07036,07,4.76820,45.28270,Bogy
07037,07,4.23410,44.89400,Borée
07038,07,4.04440,44.61150,Borne
07039,07,4.64390,45.05470,Bozas
07040,07,4.68770,45.02870,Boucieu-le-Roi
07041,07,4.64330,45.26800,Boulieu-lès-Annonay
07042,07,4.61170,44.37420,Bourg-Saint-Andéol
07044,07,4.67700,45.32860,Brossainc
07045,07,4.23460,44.74730,Burzet
07047,07,3.90280,44.67330,Cellier-du-Luc
07048,07,4.55820,44.88040,Chalencon
07049,07,4.29960,44.83060,Le Chambon
07050,07,4.13010,44.42530,Chambonas
07051,07,4.79790,45.27700,Champagne
07052,07,4.75490,44.95660,Champis
07053,07,4.24500,44.41510,Chandolas
07054,07,4.31270,44.93130,Chanéac
07055,07,4.83120,44.86320,Charmes-sur-Rhône
07056,07,4.73090,45.34290,Charnas
07058,07,4.29360,44.56560,Chassiers
07059,07,4.83460,44.98810,Châteaubourg
07060,07,4.64830,44.92580,Châteauneuf-de-Vernoux
07061,07,4.34670,44.49370,Chauzon
07062,07,4.29740,44.59490,Chazeaux
07063,07,4.74140,45.13160,Cheminas
07064,07,4.42200,44.90610,Le Cheylard
07065,07,4.29170,44.68790,Chirols
07066,07,4.66800,44.71130,Chomérac
07067,07,4.74270,45.26450,Colombier-le-Cardinal
07068,07,4.71420,45.01030,Colombier-le-Jeune
07069,07,4.70690,45.05590,Colombier-le-Vieux
07070,07,4.84410,44.96680,Cornas
07071,07,3.95710,44.79780,Coucouron
07072,07,4.61950,44.74340,Coux
07073,07,4.63220,45.01150,Le Crestet
07074,07,4.53290,44.76450,Creysseilles
07075,07,4.12260,44.80080,Cros-de-Géorand
07076,07,4.75540,44.65520,Cruas
07077,07,4.52160,44.65970,Darbres
07078,07,4.69890,45.25330,Davézieux
07079,07,4.49720,44.99460,Désaignes
07080,07,4.39870,45.07070,Devesset
07081,07,4.11320,44.56070,Dompnac
07082,07,4.36020,44.84940,Dornas
07083,07,4.64790,44.83510,Dunière-sur-Eyrieux
07084,07,4.74420,45.16180,Eclassan
07085,07,4.59680,45.02540,Empurany
07086,07,4.73810,45.09400,Étables
07087,07,4.28070,44.65010,Fabras
07088,07,4.14360,44.48280,Faugères
07089,07,4.72050,45.31550,Félines
07090,07,4.66220,44.75220,Flaviac
07091,07,4.34920,44.58260,Fons
07092,07,4.54660,44.68810,Freyssenet
07093,07,4.39150,44.74010,Genestelle
07094,07,4.74740,44.86240,Gilhac-et-Bruzac
07095,07,4.67570,44.98820,Gilhoc-sur-Ormèze
07096,07,4.52200,44.84560,Gluiras
07097,07,4.82300,45.00800,Glun
07098,07,4.46460,44.73280,Gourdon
07099,07,4.53600,44.44030,Gras
07100,07,4.07150,44.41990,Gravières
07101,07,4.28680,44.39410,Grospierres
07102,07,4.86550,44.93010,Guilherand-Granges
07103,07,4.34150,44.97920,Saint-Julien-d'Intres
07104,07,4.45190,44.78870,Issamoulenc
07105,07,4.00460,44.76440,Issanlas
07106,07,4.05970,44.84880,Issarlès
07107,07,4.24090,44.62780,Jaujac
07108,07,4.39370,44.91990,Jaunac
07109,07,4.24980,44.57370,Joannas
07110,07,4.24990,44.47130,Joyeuse
07111,07,4.30700,44.70480,Juvinas
07112,07,4.29940,44.75140,Labastide-sur-Bésorgues
07113,07,4.42360,44.35510,Labastide-de-Virac
07114,07,4.49300,45.03440,Labatie-d'Andaure
07115,07,4.30740,44.46820,Labeaume
07116,07,4.35710,44.64120,Labégude
07117,07,4.21590,44.46110,Lablachère
07118,07,4.17180,44.59280,Laboule
07119,07,4.07490,44.82820,Le Lac-d'Issarlès
07120,07,4.28600,44.79690,Lachamp-Raphaël
07121,07,4.02410,44.81210,Lachapelle-Graillouse
07122,07,4.35520,44.56010,Lachapelle-sous-Aubenas
07123,07,4.32030,44.95350,Lachapelle-sous-Chanéac
07124,07,4.51690,45.07690,Lafarre
07126,07,4.42930,44.44690,Lagorce
07127,07,4.31610,44.65270,Lalevade-d'Ardèche
07128,07,4.52160,45.11690,Lalouvesc
07129,07,4.59110,44.97670,Lamastre
07130,07,4.00270,44.73100,Lanarce
07131,07,4.38120,44.53390,Lanas
07132,07,4.29840,44.53070,Largentière
07133,07,4.59590,44.45530,Larnas
07134,07,4.28750,44.50510,Laurac-en-Vivarais
07136,07,3.92550,44.61740,Laveyrune
07137,07,3.95240,44.74190,Lavillatte
07138,07,4.44740,44.58180,Lavilledieu
07139,07,4.33380,44.76100,Laviolle
07140,07,4.78760,45.09020,Lemps
07141,07,4.29480,44.60710,Lentillères
07142,07,3.90010,44.73100,Lespéron
07143,07,4.74900,45.35100,Limony
07144,07,4.05550,44.59210,Loubaresse
07145,07,4.46530,44.62080,Lussas
07146,07,4.59760,44.75450,Lyas
07147,07,4.05120,44.47770,Malarce-sur-la-Thines
07148,07,4.07290,44.34840,Malbosc
07149,07,4.38810,44.80600,Marcols-les-Eaux
07150,07,4.35100,44.88770,Mariac
07151,07,4.32990,45.00870,Mars
07152,07,4.81820,45.02940,Mauves
07153,07,4.10010,44.66460,Mayres
07154,07,4.08400,44.72720,Mazan-l'Abbaye
07155,07,4.35090,44.62420,Mercuer
07156,07,4.26000,44.67860,Meyras
07157,07,4.70400,44.61880,Meysse
07158,07,4.34200,44.80780,Mézilhac
07159,07,4.49670,44.59860,Mirabel
07160,07,4.50890,45.20320,Monestier
07161,07,4.19770,44.72140,Montpezat-sous-Bauzon
07162,07,4.29370,44.51240,Montréal
07163,07,4.00370,44.52340,Montselgues
07165,07,4.49680,44.92000,Belsentes
07166,07,4.54050,45.03200,Nozières
07167,07,4.62070,44.80680,Les Ollières-sur-Eyrieux
07168,07,4.42140,44.30940,Orgnac-l'Aven
07169,07,4.79850,45.16370,Ozon
07170,07,4.55740,45.07860,Pailharès
07171,07,4.14740,44.45430,Payzac
07172,07,4.73350,45.28270,Peaugres
07173,07,4.25900,44.78030,Péreyres
07174,07,4.78230,45.29700,Peyraud
07175,07,3.95530,44.69700,Le Plagnal
07176,07,4.15760,44.48450,Planzolles
07177,07,4.78150,45.01670,Plats
07178,07,4.29610,44.66620,Pont-de-Labeaume
07179,07,4.50510,44.74230,Pourchères
07181,07,4.74910,44.75370,Le Pouzin
07182,07,4.31150,44.63340,Prades
07183,07,4.37540,44.47250,Pradons
07184,07,4.58180,44.78100,Pranles
07185,07,4.64580,45.13760,Préaux
07186,07,4.59490,44.72140,Privas
07187,07,4.25500,44.59570,Prunet
07188,07,4.70200,45.19160,Quintenas
07189,07,4.19690,44.50350,Ribes
07190,07,4.45190,44.51800,Rochecolombe
07191,07,4.69720,44.58630,Rochemaure
07192,07,4.46000,45.08520,Rochepaule
07193,07,4.27790,44.58100,Rocher
07194,07,4.60630,44.67790,Rochessauve
07195,07,4.22960,44.92340,La Rochette
07196,07,4.20850,44.57090,Rocles
07197,07,4.65280,45.22080,Roiffieux
07198,07,4.72850,44.76800,Rompon
07199,07,4.26070,44.48780,Rosières
07200,07,4.14090,44.72010,Le Roux
07201,07,4.34700,44.45060,Ruoms
07202,07,4.06750,44.54510,Sablières
07203,07,4.21690,44.80270,Sagnes-et-Goudoulet
07204,07,4.41880,44.99630,Saint-Agrève
07205,07,4.63180,45.18620,Saint-Alban-d'Ay
07206,07,3.91720,44.71030,Saint-Alban-en-Montagne
07207,07,4.29650,44.43240,Saint-Alban-Auriolles
07208,07,4.53360,44.53000,Saint-Andéol-de-Berg
07209,07,4.28940,44.84340,Saint-Andéol-de-Fourchades
07210,07,4.40150,44.69760,Saint-Andéol-de-Vals
07211,07,4.21470,44.31580,Saint-André-de-Cruzières
07212,07,4.41620,45.11310,Saint-André-en-Vivarais
07213,07,4.15500,44.50570,Saint-André-Lachamp
07214,07,4.58430,44.91700,Saint-Apollinaire-de-Rias
07215,07,4.48230,44.88230,Saint-Barthélemy-le-Meil
07216,07,4.65070,44.96180,Saint-Barthélemy-Grozon
07217,07,4.74550,45.04930,Saint-Barthélemy-le-Plain
07218,07,4.56180,44.94790,Saint-Basile
07219,07,4.66620,44.67080,Saint-Bauzile
07220,07,4.43660,44.87020,Saint-Christol
07221,07,4.67920,44.79200,Saint-Cierge-la-Serre
07222,07,4.45100,44.92480,Saint-Cierge-sous-le-Cheylard
07223,07,4.27290,44.62140,Saint-Cirgues-de-Prades
07224,07,4.10120,44.77090,Saint-Cirgues-en-Montagne
07225,07,4.68550,45.27640,Saint-Clair
07226,07,4.26230,44.95020,Saint-Clément
07227,07,4.73790,45.25050,Saint-Cyr
07228,07,4.78370,45.25680,Saint-Désirat
07229,07,4.42020,44.61010,Saint-Didier-sous-Aubenas
07230,07,4.47090,44.70150,Saint-Étienne-de-Boulogne
07231,07,4.37800,44.59620,Saint-Étienne-de-Fontbellon
07232,07,3.97400,44.64680,Saint-Étienne-de-Lugdarès
07233,07,4.52160,44.80260,Saint-Étienne-de-Serre
07234,07,4.77540,45.24090,Saint-Étienne-de-Valoux
07235,07,4.19180,44.82970,Sainte-Eulalie
07236,07,4.60640,45.07980,Saint-Félicien
07237,07,4.68400,44.83850,Saint-Fortunat-sur-Eyrieux
07238,07,4.19510,44.44590,Saint-Genest-de-Beauzon
07239,07,4.42490,44.84580,Saint-Genest-Lachamp
07240,07,4.80880,44.85690,Saint-Georges-les-Bains
07241,07,4.44800,44.55490,Saint-Germain
07242,07,4.54020,44.63460,Saint-Gineys-en-Coiron
07243,07,4.66840,45.33300,Saint-Jacques-d'Atticieux
07244,07,4.56040,44.90950,Saint-Jean-Chambre
07245,07,4.80010,45.07750,Saint-Jean-de-Muzols
07247,07,4.53580,44.58600,Saint-Jean-le-Centenier
07248,07,4.41830,44.95350,Saint-Jean-Roure
07249,07,4.46730,45.04720,Saint-Jeure-d'Andaure
07250,07,4.71230,45.14530,Saint-Jeure-d'Ay
07251,07,4.41470,44.75150,Saint-Joseph-des-Bancs
07253,07,4.44190,44.77020,Saint-Julien-du-Gua
07254,07,4.40200,44.66030,Saint-Julien-du-Serre
07255,07,4.69000,44.75160,Saint-Julien-en-Saint-Alban
07257,07,4.67730,44.86630,Saint-Julien-le-Roux
07258,07,4.48970,45.16760,Saint-Julien-Vocance
07259,07,4.62420,44.29170,Saint-Just-d'Ardèche
07260,07,4.71960,44.69160,Saint-Lager-Bressac
07261,07,4.74750,44.82340,Saint-Laurent-du-Pape
07262,07,3.95920,44.59060,Saint-Laurent-les-Bains-Laval-d'Aurelle
07263,07,4.48380,44.67260,Saint-Laurent-sous-Coiron
07264,07,4.60070,44.33010,Saint-Marcel-d'Ardèche
07265,07,4.63400,45.29090,Saint-Marcel-lès-Annonay
07266,07,3.99750,44.48660,Sainte-Marguerite-Lafigère
07267,07,4.25070,44.85730,Saint-Martial
07268,07,4.57220,44.30730,Saint-Martin-d'Ardèche
07269,07,4.36960,44.93680,Saint-Martin-de-Valamas
07270,07,4.65260,44.63830,Saint-Martin-sur-Lavezon
07272,07,4.40150,44.51980,Saint-Maurice-d'Ardèche
07273,07,4.48610,44.47820,Saint-Maurice-d'Ibie
07274,07,4.58120,44.85480,Saint-Maurice-en-Chalencon
07275,07,4.12760,44.53910,Saint-Mélany
07276,07,4.45870,44.89950,Saint-Michel-d'Aurance
07277,07,4.43230,44.69930,Saint-Michel-de-Boulogne
07278,07,4.61160,44.83650,Saint-Michel-de-Chabrillanoux
07279,07,4.61850,44.43790,Saint-Montan
07280,07,4.15730,44.33320,Saint-Paul-le-Jeune
07281,07,4.83140,44.93940,Saint-Péray
07282,07,4.26510,44.71020,Saint-Pierre-de-Colombier
07283,07,4.61880,44.65530,Saint-Pierre-la-Roche
07284,07,4.09710,44.47850,Saint-Pierre-Saint-Jean
07285,07,4.48480,45.12600,Saint-Pierre-sur-Doux
07286,07,4.48450,44.82420,Saint-Pierreville
07287,07,4.57250,44.59850,Saint-Pons
07288,07,4.53890,44.71480,Saint-Priest
07289,07,4.42390,44.62840,Saint-Privat
07290,07,4.50300,44.95060,Saint-Prix
07291,07,4.49790,44.37680,Saint-Remèze
07292,07,4.68040,45.16620,Saint-Romain-d'Ay
07293,07,4.79520,44.97680,Saint-Romain-de-Lerps
07294,07,4.25350,44.29500,Saint-Sauveur-de-Cruzières
07295,07,4.57720,44.81990,Saint-Sauveur-de-Montagut
07296,07,4.37620,44.57550,Saint-Sernin
07297,07,4.74810,44.98650,Saint-Sylvestre
07298,07,4.70730,44.73010,Saint-Symphorien-sous-Chomérac
07299,07,4.55340,45.15630,Saint-Symphorien-de-Mahun
07300,07,4.61840,44.50370,Saint-Thomé
07301,07,4.68670,45.10400,Saint-Victor
07302,07,4.70330,44.65830,Saint-Vincent-de-Barrès
07303,07,4.63730,44.79120,Saint-Vincent-de-Durfort
07304,07,4.36520,44.38820,Salavas
07305,07,4.09890,44.43550,Les Salelles
07306,07,4.33420,44.41190,Sampzon
07307,07,4.23430,44.53090,Sanilhac
07308,07,4.77750,45.18660,Sarras
07309,07,4.59250,45.14200,Satillieu
07310,07,4.67060,45.30010,Savas
07311,07,4.60900,44.61580,Sceautres
07312,07,4.77590,45.12960,Sécheras
07313,07,4.76540,45.31780,Serrières
07314,07,4.60890,44.87380,Silhac
07315,07,4.15650,44.62580,La Souche
07316,07,4.85040,44.89190,Soyons
07317,07,4.77240,45.21990,Talencieux
07318,07,4.27100,44.55180,Tauriers
07319,07,4.66640,44.54760,Le Teil
07321,07,4.76060,45.23270,Thorrenc
07322,07,4.21070,44.67270,Thueyts
07323,07,4.79420,44.90090,Toulaud
07324,07,4.81560,45.05340,Tournon-sur-Rhône
07325,07,4.38670,44.64120,Ucel
07326,07,4.16730,44.77220,Usclades-et-Rieutord
07327,07,4.32870,44.51770,Uzer
07328,07,4.34660,44.36270,Vagnas
07329,07,4.11180,44.59180,Valgorge
07330,07,4.40240,44.39820,Vallon-Pont-d'Arc
07331,07,4.34260,44.66600,Vals-les-Bains
07332,07,4.55380,44.50500,Valvignères
07333,07,4.53550,45.22440,Vanosc
07334,07,4.11450,44.38840,Les Vans
07335,07,4.60740,45.10970,Vaudevant
07336,07,4.22510,44.50740,Vernon
07337,07,4.72540,45.22400,Vernosc-lès-Annonay
07338,07,4.64430,44.90690,Vernoux-en-Vivarais
07339,07,4.44380,44.65310,Vesseaux
07340,07,4.55410,44.73460,Veyras
07341,07,4.51190,44.54550,Villeneuve-de-Berg
07342,07,4.59520,45.22530,Villevocance
07343,07,4.33320,44.54980,Vinezac
07344,07,4.70440,45.32910,Vinzieux
07345,07,4.79770,45.11520,Vion
07346,07,4.66160,44.48160,Viviers
07347,07,4.56160,45.19470,Vocance
07348,07,4.41100,44.55620,Vogüé
07349,07,4.78290,44.79960,La Voulte-sur-Rhône
08001,08,4.32690,49.49150,Acy-Romance
08003,08,4.76790,49.79090,Aiglemont
08004,08,4.16240,49.46950,Aire
08005,08,4.34500,49.40090,Alincourt
08006,08,4.54670,49.51170,Alland'Huy-et-Sausseuil
08008,08,4.50400,49.51330,Amagne
08010,08,4.49040,49.49010,Ambly-Fleury
08011,08,4.66180,49.92550,Anchamps
08013,08,4.97390,49.63320,Angecourt
08014,08,4.41410,49.43410,Annelles
08015,08,4.30840,49.84230,Antheny
08016,08,4.31010,49.79630,Aouste
08017,08,4.96740,49.25900,Apremont
08018,08,4.70480,49.26720,Ardeuil-et-Montfauxelles
08019,08,4.89780,49.52920,Les Grandes-Armoises
08020,08,4.82920,49.50040,Les Petites-Armoises
08021,08,4.34000,49.55430,Arnicourt
08022,08,4.66120,49.82660,Arreux
08023,08,4.89370,49.57110,Artaise-le-Vivier
08024,08,4.12350,49.47670,Asfeld
08025,08,4.59150,49.47560,Attigny
08026,08,4.42590,49.76460,Aubigny-les-Pothées
08027,08,4.48030,49.55740,Auboncourt-Vauzelles
08028,08,4.76680,50.08650,Aubrives
08029,08,5.29220,49.61530,Auflance
08030,08,4.26800,49.85660,Auge
08031,08,4.62210,49.27610,Aure
08032,08,4.32520,49.34320,Aussonce
08033,08,4.87890,49.46150,Authe
08034,08,5.02190,49.60490,Autrecourt-et-Pourron
08035,08,4.90670,49.45250,Autruche
08036,08,4.83110,49.26470,Autry
08037,08,4.36070,49.86710,Auvillers-les-Forges
08038,08,4.25410,49.47820,Avançon
08039,08,4.06850,49.46540,Avaux
08040,08,4.75500,49.72170,Les Ayvelles
08041,08,4.66360,49.60110,Baâlons
08043,08,4.96440,49.68870,Balan
08044,08,4.15230,49.49150,Balham
08045,08,4.75600,49.42320,Ballay
08046,08,4.13290,49.57110,Banogne-Recouvrance
08047,08,4.57920,49.67750,Barbaise
08048,08,4.31440,49.52520,Barby
08049,08,4.95620,49.44330,Bar-lès-Buzancy
08052,08,5.01360,49.39570,Bayonville
08053,08,5.02690,49.71430,Bazeilles
08055,08,5.02760,49.53080,Beaumont-en-Argonne
08056,08,4.89330,49.37310,Beffu-et-le-Morthomme
08057,08,4.81780,49.46240,Belleville-et-Châtillon-sur-Bar
08058,08,4.63980,49.77250,Belval
08059,08,5.04620,49.48240,Belval-Bois-des-Dames
08060,08,4.24890,49.41190,Bergnicourt
08061,08,4.94300,49.52650,La Berlière
08062,08,4.39960,49.53770,Bertoncourt
08063,08,4.96610,49.55410,La Besace
08064,08,4.38150,49.47690,Biermes
08065,08,5.28230,49.55620,Bièvres
08066,08,4.42120,49.39020,Bignicourt
08067,08,5.19890,49.62320,Blagny
08069,08,4.24790,49.76270,Blanchefosse-et-Bay
08070,08,4.18610,49.48510,Blanzy-la-Salonnaise
08071,08,4.45650,49.81660,Blombay
08073,08,4.25560,49.84100,Bossus-lès-Rumigny
08074,08,4.77070,49.26170,Bouconville
08075,08,4.83650,49.41710,Boult-aux-Bois
08076,08,4.69880,49.69050,Boulzicourt
08077,08,4.61700,49.38520,Bourcq
08078,08,4.55300,49.89200,Bourg-Fidèle
08080,08,4.66400,49.58440,Bouvellemont
08081,08,4.75610,49.84720,Bogny-sur-Meuse
08082,08,4.75850,49.33580,Brécy-Brières
08083,08,5.08120,49.65970,Brévilly
08084,08,4.06200,49.42460,Brienne-sur-Aisne
08085,08,4.86500,49.48020,Brieulles-sur-Bar
08086,08,4.86990,49.40290,Briquenay
08087,08,4.28050,49.93360,Brognon
08088,08,4.91330,49.62760,Bulson
08089,08,4.96890,49.41740,Buzancy
08090,08,5.17390,49.63890,Carignan
08092,08,4.45660,49.34860,Cauroy
08094,08,4.42650,49.80020,Cernion
08095,08,4.69990,49.57070,Chagny
08096,08,4.75710,49.70920,Chalandry-Elaire
08097,08,4.74410,49.30850,Challerange
08098,08,4.93190,49.35040,Champigneulle
08099,08,4.66830,49.70270,Champigneul-sur-Vence
08100,08,4.32620,49.83400,Champlin
08101,08,5.02500,49.75470,La Chapelle
08102,08,4.28300,49.61130,Chappes
08103,08,4.59030,49.50780,Charbogne
08104,08,4.59130,49.42040,Chardeny
08105,08,4.73040,49.78020,Charleville-Mézières
08106,08,4.82910,50.09860,Charnois
08107,08,4.24820,49.53240,Château-Porcien
08109,08,4.95420,49.28070,Chatel-Chéhéry
08110,08,4.51750,49.84000,Le Châtelet-sur-Sormonne
08111,08,4.27740,49.41130,Le Châtelet-sur-Retourne
08113,08,4.23550,49.64580,Chaumont-Porcien
08115,08,4.86990,49.61450,Chémery-Chéhéry
08116,08,4.75940,49.51460,Bairon et ses environs
08117,08,4.56330,49.56210,Chesnois-Auboncourt
08119,08,4.88690,49.65810,Cheveuges
08120,08,4.89260,49.32060,Chevières
08121,08,4.47130,49.84170,Chilly
08122,08,4.79960,50.09240,Chooz
08123,08,4.61710,49.45240,Chuffilly-Roche
08124,08,4.55030,49.74310,Clavy-Warby
08125,08,4.61950,49.80790,Cliron
08126,08,4.19290,49.53870,Condé-lès-Herpy
08128,08,4.85460,49.24540,Condé-lès-Autry
08130,08,4.61650,49.35910,Contreuve
08131,08,4.93390,49.30120,Cornay
08132,08,4.44820,49.58280,Corny-Machéroménil
08133,08,4.46040,49.50950,Coucy
08134,08,4.57520,49.42860,Coulommes-et-Marqueny
08135,08,4.78990,49.40610,La Croix-aux-Bois
08136,08,5.00200,49.70450,Daigny
08137,08,4.68190,49.81320,Damouzy
08138,08,5.23060,49.65680,Les Deux-Villes
08139,08,4.69430,49.87540,Deville
08140,08,4.81250,49.68400,Dom-le-Mesnil
08141,08,4.48180,49.68100,Dommery
08142,08,4.88860,49.73200,Donchery
08143,08,4.30720,49.63370,Doumely-Bégny
08144,08,4.42940,49.51890,Doux
08145,08,5.04570,49.66610,Douzy
08146,08,4.33300,49.65090,Draize
08147,08,4.52160,49.39410,Dricourt
08148,08,4.20980,49.40980,L'Écaille
08149,08,4.48840,49.80380,L'Échelle
08150,08,4.28410,49.55290,Écly
08151,08,4.58830,49.53410,Écordal
08153,08,5.12680,49.69890,Escombres-et-le-Chesnois
08154,08,4.34590,49.82640,Estrebay
08155,08,4.44490,49.85260,Étalle
08156,08,4.41270,49.89540,Éteignières
08158,08,4.74800,49.68720,Étrépigny
08159,08,5.11510,49.62860,Euilly-et-Lombut
08160,08,4.67360,49.72680,Évigny
08161,08,5.02140,49.29780,Exermont
08162,08,4.61200,49.73050,Fagnon
08163,08,4.50540,49.61070,Faissault
08164,08,4.74410,49.38150,Falaise
08165,08,4.50630,49.53780,Faux
08166,08,4.70870,50.02280,Fépin
08167,08,4.30370,49.75860,La Férée
08168,08,5.23300,49.57330,La Ferté-sur-Chiers
08169,08,4.39930,49.82500,Flaignes-Havys
08170,08,4.96880,49.76850,Fleigneux
08171,08,4.98270,49.30810,Fléville
08172,08,4.26990,49.88400,Fligny
08173,08,4.73980,49.67180,Flize
08174,08,4.93700,49.72270,Floing
08175,08,4.77560,50.12910,Foisches
08176,08,5.00480,49.44810,Fossé
08178,08,4.17250,49.66610,Fraillicourt
08179,08,5.07780,49.72310,Francheval
08180,08,4.70350,49.72630,La Francheville
08182,08,4.25900,49.73400,Le Fréty
08183,08,4.87010,50.11380,Fromelennes
08184,08,5.25490,49.60270,Fromy
08185,08,4.66120,49.97050,Fumay
08186,08,4.87780,49.43380,Germont
08187,08,4.82150,49.77470,Gernelle
08188,08,4.84420,49.81580,Gespunsart
